{
 "type": "FeatureCollection",
 "name": "GTFS stops",
 "features": [
  {
   "type": "Feature",
   "geometry": {
    "type": "Point",
    "coordinates": [
     141.143584823586,
     42.49155027134589
    ]
   },
   "properties": {
    "stop_id": "S0109000001",
    "stop_name": "登別温泉",
    "stop_lat": 42.49155027134589,
    "stop_lon": 141.143584823586,
    "zone_id": "0",
    "location_type": 1,
    "parent_station": NaN
   }
  },
  {
   "type": "Feature",
   "geometry": {
    "type": "Point",
    "coordinates": [
     141.143584823586,
     42.49155027134589
    ]
   },
   "properties": {
    "stop_id": "S010900000100000",
    "stop_name": "登別温泉",
    "stop_lat": 42.49155027134589,
    "stop_lon": 141.143584823586,
    "zone_id": "Z003440",
    "location_type": 0,
    "parent_station": "S0109000001"
   }
  },
  {
   "type": "Feature",
   "geometry": {
    "type": "Point",
    "coordinates": [
     141.14698741709802,
     42.489415142488106
    ]
   },
   "properties": {
    "stop_id": "S0109000002",
    "stop_name": "ＪＣＨＯ登別病院前",
    "stop_lat": 42.489415142488106,
    "stop_lon": 141.14698741709802,
    "zone_id": "0",
    "location_type": 1,
    "parent_station": NaN
   }
  },
  {
   "type": "Feature",
   "geometry": {
    "type": "Point",
    "coordinates": [
     141.14698741709802,
     42.489415142488106
    ]
   },
   "properties": {
    "stop_id": "S010900000200000",
    "stop_name": "ＪＣＨＯ登別病院前",
    "stop_lat": 42.489415142488106,
    "stop_lon": 141.14698741709802,
    "zone_id": "Z003660",
    "location_type": 0,
    "parent_station": "S0109000002"
   }
  },
  {
   "type": "Feature",
   "geometry": {
    "type": "Point",
    "coordinates": [
     141.14726579484,
     42.475883608581
    ]
   },
   "properties": {
    "stop_id": "S0109000003",
    "stop_name": "紅葉谷入口",
    "stop_lat": 42.475883608581,
    "stop_lon": 141.14726579484,
    "zone_id": "0",
    "location_type": 1,
    "parent_station": NaN
   }
  },
  {
   "type": "Feature",
   "geometry": {
    "type": "Point",
    "coordinates": [
     141.14726579484,
     42.475883608581
    ]
   },
   "properties": {
    "stop_id": "S010900000300000",
    "stop_name": "紅葉谷入口",
    "stop_lat": 42.475883608581,
    "stop_lon": 141.14726579484,
    "zone_id": "Z003650",
    "location_type": 0,
    "parent_station": "S0109000003"
   }
  },
  {
   "type": "Feature",
   "geometry": {
    "type": "Point",
    "coordinates": [
     141.13115523636003,
     42.4929387946059
    ]
   },
   "properties": {
    "stop_id": "S0109000004",
    "stop_name": "ポロシリ",
    "stop_lat": 42.4929387946059,
    "stop_lon": 141.13115523636003,
    "zone_id": "0",
    "location_type": 1,
    "parent_station": NaN
   }
  },
  {
   "type": "Feature",
   "geometry": {
    "type": "Point",
    "coordinates": [
     141.13115523636003,
     42.4929387946059
    ]
   },
   "properties": {
    "stop_id": "S010900000400000",
    "stop_name": "ポロシリ",
    "stop_lat": 42.4929387946059,
    "stop_lon": 141.13115523636003,
    "zone_id": "Z003680",
    "location_type": 0,
    "parent_station": "S0109000004"
   }
  },
  {
   "type": "Feature",
   "geometry": {
    "type": "Point",
    "coordinates": [
     141.12869004581302,
     42.4954905619403
    ]
   },
   "properties": {
    "stop_id": "S0109000005",
    "stop_name": "新登別",
    "stop_lat": 42.4954905619403,
    "stop_lon": 141.12869004581302,
    "zone_id": "0",
    "location_type": 1,
    "parent_station": NaN
   }
  },
  {
   "type": "Feature",
   "geometry": {
    "type": "Point",
    "coordinates": [
     141.12869004581302,
     42.4954905619403
    ]
   },
   "properties": {
    "stop_id": "S010900000500000",
    "stop_name": "新登別",
    "stop_lat": 42.4954905619403,
    "stop_lon": 141.12869004581302,
    "zone_id": "Z003690",
    "location_type": 0,
    "parent_station": "S0109000005"
   }
  },
  {
   "type": "Feature",
   "geometry": {
    "type": "Point",
    "coordinates": [
     141.10858658793302,
     42.5163560345581
    ]
   },
   "properties": {
    "stop_id": "S0109000006",
    "stop_name": "カルルス",
    "stop_lat": 42.5163560345581,
    "stop_lon": 141.10858658793302,
    "zone_id": "0",
    "location_type": 1,
    "parent_station": NaN
   }
  },
  {
   "type": "Feature",
   "geometry": {
    "type": "Point",
    "coordinates": [
     141.10858658793302,
     42.5163560345581
    ]
   },
   "properties": {
    "stop_id": "S010900000600000",
    "stop_name": "カルルス",
    "stop_lat": 42.5163560345581,
    "stop_lon": 141.10858658793302,
    "zone_id": "Z003700",
    "location_type": 0,
    "parent_station": "S0109000006"
   }
  },
  {
   "type": "Feature",
   "geometry": {
    "type": "Point",
    "coordinates": [
     141.598401356674,
     42.639354906493395
    ]
   },
   "properties": {
    "stop_id": "S0109000007",
    "stop_name": "苫小牧駅前",
    "stop_lat": 42.639354906493395,
    "stop_lon": 141.598401356674,
    "zone_id": "0",
    "location_type": 1,
    "parent_station": NaN
   }
  },
  {
   "type": "Feature",
   "geometry": {
    "type": "Point",
    "coordinates": [
     141.598401356674,
     42.639354906493395
    ]
   },
   "properties": {
    "stop_id": "S010900000700000",
    "stop_name": "苫小牧駅前",
    "stop_lat": 42.639354906493395,
    "stop_lon": 141.598401356674,
    "zone_id": "Z004450",
    "location_type": 0,
    "parent_station": "S0109000007"
   }
  },
  {
   "type": "Feature",
   "geometry": {
    "type": "Point",
    "coordinates": [
     141.598401356674,
     42.639354906493395
    ]
   },
   "properties": {
    "stop_id": "S010900000700001",
    "stop_name": "苫小牧駅前",
    "stop_lat": 42.639354906493395,
    "stop_lon": 141.598401356674,
    "zone_id": "Z004451",
    "location_type": 0,
    "parent_station": "S0109000007"
   }
  },
  {
   "type": "Feature",
   "geometry": {
    "type": "Point",
    "coordinates": [
     141.599929077117,
     42.637844678046896
    ]
   },
   "properties": {
    "stop_id": "S0109000008",
    "stop_name": "表町五丁目",
    "stop_lat": 42.637844678046896,
    "stop_lon": 141.599929077117,
    "zone_id": "0",
    "location_type": 1,
    "parent_station": NaN
   }
  },
  {
   "type": "Feature",
   "geometry": {
    "type": "Point",
    "coordinates": [
     141.599929077117,
     42.637844678046896
    ]
   },
   "properties": {
    "stop_id": "S010900000800000",
    "stop_name": "表町五丁目",
    "stop_lat": 42.637844678046896,
    "stop_lon": 141.599929077117,
    "zone_id": "Z004460",
    "location_type": 0,
    "parent_station": "S0109000008"
   }
  },
  {
   "type": "Feature",
   "geometry": {
    "type": "Point",
    "coordinates": [
     141.599929077117,
     42.637844678046896
    ]
   },
   "properties": {
    "stop_id": "S010900000800001",
    "stop_name": "表町五丁目",
    "stop_lat": 42.637844678046896,
    "stop_lon": 141.599929077117,
    "zone_id": "Z004461",
    "location_type": 0,
    "parent_station": "S0109000008"
   }
  },
  {
   "type": "Feature",
   "geometry": {
    "type": "Point",
    "coordinates": [
     141.602046924813,
     42.6385390852103
    ]
   },
   "properties": {
    "stop_id": "S0109000009",
    "stop_name": "王子総合病院前",
    "stop_lat": 42.6385390852103,
    "stop_lon": 141.602046924813,
    "zone_id": "0",
    "location_type": 1,
    "parent_station": NaN
   }
  },
  {
   "type": "Feature",
   "geometry": {
    "type": "Point",
    "coordinates": [
     141.602046924813,
     42.6385390852103
    ]
   },
   "properties": {
    "stop_id": "S010900000900000",
    "stop_name": "王子総合病院前",
    "stop_lat": 42.6385390852103,
    "stop_lon": 141.602046924813,
    "zone_id": "Z004910",
    "location_type": 0,
    "parent_station": "S0109000009"
   }
  },
  {
   "type": "Feature",
   "geometry": {
    "type": "Point",
    "coordinates": [
     141.602046924813,
     42.6385390852103
    ]
   },
   "properties": {
    "stop_id": "S010900000900001",
    "stop_name": "王子総合病院前",
    "stop_lat": 42.6385390852103,
    "stop_lon": 141.602046924813,
    "zone_id": "Z004911",
    "location_type": 0,
    "parent_station": "S0109000009"
   }
  },
  {
   "type": "Feature",
   "geometry": {
    "type": "Point",
    "coordinates": [
     141.604095547236,
     42.634598570251896
    ]
   },
   "properties": {
    "stop_id": "S0109000010",
    "stop_name": "市役所前［苫小牧市］",
    "stop_lat": 42.634598570251896,
    "stop_lon": 141.604095547236,
    "zone_id": "0",
    "location_type": 1,
    "parent_station": NaN
   }
  },
  {
   "type": "Feature",
   "geometry": {
    "type": "Point",
    "coordinates": [
     141.604095547236,
     42.634598570251896
    ]
   },
   "properties": {
    "stop_id": "S010900001000000",
    "stop_name": "市役所前［苫小牧市］",
    "stop_lat": 42.634598570251896,
    "stop_lon": 141.604095547236,
    "zone_id": "Z004510",
    "location_type": 0,
    "parent_station": "S0109000010"
   }
  },
  {
   "type": "Feature",
   "geometry": {
    "type": "Point",
    "coordinates": [
     141.604095547236,
     42.634598570251896
    ]
   },
   "properties": {
    "stop_id": "S010900001000001",
    "stop_name": "市役所前［苫小牧市］",
    "stop_lat": 42.634598570251896,
    "stop_lon": 141.604095547236,
    "zone_id": "Z004511",
    "location_type": 0,
    "parent_station": "S0109000010"
   }
  },
  {
   "type": "Feature",
   "geometry": {
    "type": "Point",
    "coordinates": [
     141.600658427409,
     42.632541438580205
    ]
   },
   "properties": {
    "stop_id": "S0109000011",
    "stop_name": "駅通十字街［苫小牧駅］",
    "stop_lat": 42.632541438580205,
    "stop_lon": 141.600658427409,
    "zone_id": "0",
    "location_type": 1,
    "parent_station": NaN
   }
  },
  {
   "type": "Feature",
   "geometry": {
    "type": "Point",
    "coordinates": [
     141.600658427409,
     42.632541438580205
    ]
   },
   "properties": {
    "stop_id": "S010900001100000",
    "stop_name": "駅通十字街［苫小牧駅］",
    "stop_lat": 42.632541438580205,
    "stop_lon": 141.600658427409,
    "zone_id": "Z004870",
    "location_type": 0,
    "parent_station": "S0109000011"
   }
  },
  {
   "type": "Feature",
   "geometry": {
    "type": "Point",
    "coordinates": [
     141.600658427409,
     42.632541438580205
    ]
   },
   "properties": {
    "stop_id": "S010900001100001",
    "stop_name": "駅通十字街［苫小牧駅］",
    "stop_lat": 42.632541438580205,
    "stop_lon": 141.600658427409,
    "zone_id": "Z004871",
    "location_type": 0,
    "parent_station": "S0109000011"
   }
  },
  {
   "type": "Feature",
   "geometry": {
    "type": "Point",
    "coordinates": [
     141.595867294133,
     42.629598961287705
    ]
   },
   "properties": {
    "stop_id": "S0109000012",
    "stop_name": "アイビープラザ前",
    "stop_lat": 42.629598961287705,
    "stop_lon": 141.595867294133,
    "zone_id": "0",
    "location_type": 1,
    "parent_station": NaN
   }
  },
  {
   "type": "Feature",
   "geometry": {
    "type": "Point",
    "coordinates": [
     141.595867294133,
     42.629598961287705
    ]
   },
   "properties": {
    "stop_id": "S010900001200000",
    "stop_name": "アイビープラザ前",
    "stop_lat": 42.629598961287705,
    "stop_lon": 141.595867294133,
    "zone_id": "Z004440",
    "location_type": 0,
    "parent_station": "S0109000012"
   }
  },
  {
   "type": "Feature",
   "geometry": {
    "type": "Point",
    "coordinates": [
     141.595867294133,
     42.629598961287705
    ]
   },
   "properties": {
    "stop_id": "S010900001200001",
    "stop_name": "アイビープラザ前",
    "stop_lat": 42.629598961287705,
    "stop_lon": 141.595867294133,
    "zone_id": "Z004441",
    "location_type": 0,
    "parent_station": "S0109000012"
   }
  },
  {
   "type": "Feature",
   "geometry": {
    "type": "Point",
    "coordinates": [
     141.593367564483,
     42.6282362161621
    ]
   },
   "properties": {
    "stop_id": "S0109000013",
    "stop_name": "幸町一丁目",
    "stop_lat": 42.6282362161621,
    "stop_lon": 141.593367564483,
    "zone_id": "0",
    "location_type": 1,
    "parent_station": NaN
   }
  },
  {
   "type": "Feature",
   "geometry": {
    "type": "Point",
    "coordinates": [
     141.593367564483,
     42.6282362161621
    ]
   },
   "properties": {
    "stop_id": "S010900001300000",
    "stop_name": "幸町一丁目",
    "stop_lat": 42.6282362161621,
    "stop_lon": 141.593367564483,
    "zone_id": "Z005800",
    "location_type": 0,
    "parent_station": "S0109000013"
   }
  },
  {
   "type": "Feature",
   "geometry": {
    "type": "Point",
    "coordinates": [
     141.593367564483,
     42.6282362161621
    ]
   },
   "properties": {
    "stop_id": "S010900001300001",
    "stop_name": "幸町一丁目",
    "stop_lat": 42.6282362161621,
    "stop_lon": 141.593367564483,
    "zone_id": "Z005801",
    "location_type": 0,
    "parent_station": "S0109000013"
   }
  },
  {
   "type": "Feature",
   "geometry": {
    "type": "Point",
    "coordinates": [
     141.59041651540002,
     42.626179092979605
    ]
   },
   "properties": {
    "stop_id": "S0109000014",
    "stop_name": "元町一丁目",
    "stop_lat": 42.626179092979605,
    "stop_lon": 141.59041651540002,
    "zone_id": "0",
    "location_type": 1,
    "parent_station": NaN
   }
  },
  {
   "type": "Feature",
   "geometry": {
    "type": "Point",
    "coordinates": [
     141.59041651540002,
     42.626179092979605
    ]
   },
   "properties": {
    "stop_id": "S010900001400000",
    "stop_name": "元町一丁目",
    "stop_lat": 42.626179092979605,
    "stop_lon": 141.59041651540002,
    "zone_id": "Z004560",
    "location_type": 0,
    "parent_station": "S0109000014"
   }
  },
  {
   "type": "Feature",
   "geometry": {
    "type": "Point",
    "coordinates": [
     141.59041651540002,
     42.626179092979605
    ]
   },
   "properties": {
    "stop_id": "S010900001400001",
    "stop_name": "元町一丁目",
    "stop_lat": 42.626179092979605,
    "stop_lon": 141.59041651540002,
    "zone_id": "Z004561",
    "location_type": 0,
    "parent_station": "S0109000014"
   }
  },
  {
   "type": "Feature",
   "geometry": {
    "type": "Point",
    "coordinates": [
     141.585833595851,
     42.6254586038812
    ]
   },
   "properties": {
    "stop_id": "S0109000015",
    "stop_name": "矢代ゲートボールセンター",
    "stop_lat": 42.6254586038812,
    "stop_lon": 141.585833595851,
    "zone_id": "0",
    "location_type": 1,
    "parent_station": NaN
   }
  },
  {
   "type": "Feature",
   "geometry": {
    "type": "Point",
    "coordinates": [
     141.585833595851,
     42.6254586038812
    ]
   },
   "properties": {
    "stop_id": "S010900001500000",
    "stop_name": "矢代ゲートボールセンター",
    "stop_lat": 42.6254586038812,
    "stop_lon": 141.585833595851,
    "zone_id": "Z006550",
    "location_type": 0,
    "parent_station": "S0109000015"
   }
  },
  {
   "type": "Feature",
   "geometry": {
    "type": "Point",
    "coordinates": [
     141.585833595851,
     42.6254586038812
    ]
   },
   "properties": {
    "stop_id": "S010900001500001",
    "stop_name": "矢代ゲートボールセンター",
    "stop_lat": 42.6254586038812,
    "stop_lon": 141.585833595851,
    "zone_id": "Z006551",
    "location_type": 0,
    "parent_station": "S0109000015"
   }
  },
  {
   "type": "Feature",
   "geometry": {
    "type": "Point",
    "coordinates": [
     141.579584155632,
     42.6245731727599
    ]
   },
   "properties": {
    "stop_id": "S0109000016",
    "stop_name": "元町二丁目",
    "stop_lat": 42.6245731727599,
    "stop_lon": 141.579584155632,
    "zone_id": "0",
    "location_type": 1,
    "parent_station": NaN
   }
  },
  {
   "type": "Feature",
   "geometry": {
    "type": "Point",
    "coordinates": [
     141.579584155632,
     42.6245731727599
    ]
   },
   "properties": {
    "stop_id": "S010900001600000",
    "stop_name": "元町二丁目",
    "stop_lat": 42.6245731727599,
    "stop_lon": 141.579584155632,
    "zone_id": "Z004570",
    "location_type": 0,
    "parent_station": "S0109000016"
   }
  },
  {
   "type": "Feature",
   "geometry": {
    "type": "Point",
    "coordinates": [
     141.579584155632,
     42.6245731727599
    ]
   },
   "properties": {
    "stop_id": "S010900001600001",
    "stop_name": "元町二丁目",
    "stop_lat": 42.6245731727599,
    "stop_lon": 141.579584155632,
    "zone_id": "Z004571",
    "location_type": 0,
    "parent_station": "S0109000016"
   }
  },
  {
   "type": "Feature",
   "geometry": {
    "type": "Point",
    "coordinates": [
     141.577743953946,
     42.6262396290379
    ]
   },
   "properties": {
    "stop_id": "S0109000017",
    "stop_name": "新富一丁目",
    "stop_lat": 42.6262396290379,
    "stop_lon": 141.577743953946,
    "zone_id": "0",
    "location_type": 1,
    "parent_station": NaN
   }
  },
  {
   "type": "Feature",
   "geometry": {
    "type": "Point",
    "coordinates": [
     141.577743953946,
     42.6262396290379
    ]
   },
   "properties": {
    "stop_id": "S010900001700000",
    "stop_name": "新富一丁目",
    "stop_lat": 42.6262396290379,
    "stop_lon": 141.577743953946,
    "zone_id": "Z005470",
    "location_type": 0,
    "parent_station": "S0109000017"
   }
  },
  {
   "type": "Feature",
   "geometry": {
    "type": "Point",
    "coordinates": [
     141.577743953946,
     42.6262396290379
    ]
   },
   "properties": {
    "stop_id": "S010900001700001",
    "stop_name": "新富一丁目",
    "stop_lat": 42.6262396290379,
    "stop_lon": 141.577743953946,
    "zone_id": "Z005471",
    "location_type": 0,
    "parent_station": "S0109000017"
   }
  },
  {
   "type": "Feature",
   "geometry": {
    "type": "Point",
    "coordinates": [
     141.57684111686,
     42.629155968001
    ]
   },
   "properties": {
    "stop_id": "S0109000018",
    "stop_name": "西高校前",
    "stop_lat": 42.629155968001,
    "stop_lon": 141.57684111686,
    "zone_id": "0",
    "location_type": 1,
    "parent_station": NaN
   }
  },
  {
   "type": "Feature",
   "geometry": {
    "type": "Point",
    "coordinates": [
     141.57684111686,
     42.629155968001
    ]
   },
   "properties": {
    "stop_id": "S010900001800000",
    "stop_name": "西高校前",
    "stop_lat": 42.629155968001,
    "stop_lon": 141.57684111686,
    "zone_id": "Z005950",
    "location_type": 0,
    "parent_station": "S0109000018"
   }
  },
  {
   "type": "Feature",
   "geometry": {
    "type": "Point",
    "coordinates": [
     141.57684111686,
     42.629155968001
    ]
   },
   "properties": {
    "stop_id": "S010900001800001",
    "stop_name": "西高校前",
    "stop_lat": 42.629155968001,
    "stop_lon": 141.57684111686,
    "zone_id": "Z005951",
    "location_type": 0,
    "parent_station": "S0109000018"
   }
  },
  {
   "type": "Feature",
   "geometry": {
    "type": "Point",
    "coordinates": [
     141.57430634816401,
     42.634736924005
    ]
   },
   "properties": {
    "stop_id": "S0109000019",
    "stop_name": "北光通",
    "stop_lat": 42.634736924005,
    "stop_lon": 141.57430634816401,
    "zone_id": "0",
    "location_type": 1,
    "parent_station": NaN
   }
  },
  {
   "type": "Feature",
   "geometry": {
    "type": "Point",
    "coordinates": [
     141.57430634816401,
     42.634736924005
    ]
   },
   "properties": {
    "stop_id": "S010900001900000",
    "stop_name": "北光通",
    "stop_lat": 42.634736924005,
    "stop_lon": 141.57430634816401,
    "zone_id": "Z005100",
    "location_type": 0,
    "parent_station": "S0109000019"
   }
  },
  {
   "type": "Feature",
   "geometry": {
    "type": "Point",
    "coordinates": [
     141.57430634816401,
     42.634736924005
    ]
   },
   "properties": {
    "stop_id": "S010900001900001",
    "stop_name": "北光通",
    "stop_lat": 42.634736924005,
    "stop_lon": 141.57430634816401,
    "zone_id": "Z005101",
    "location_type": 0,
    "parent_station": "S0109000019"
   }
  },
  {
   "type": "Feature",
   "geometry": {
    "type": "Point",
    "coordinates": [
     141.571875824205,
     42.638434402732294
    ]
   },
   "properties": {
    "stop_id": "S0109000020",
    "stop_name": "北光小学校前",
    "stop_lat": 42.638434402732294,
    "stop_lon": 141.571875824205,
    "zone_id": "0",
    "location_type": 1,
    "parent_station": NaN
   }
  },
  {
   "type": "Feature",
   "geometry": {
    "type": "Point",
    "coordinates": [
     141.571875824205,
     42.638434402732294
    ]
   },
   "properties": {
    "stop_id": "S010900002000000",
    "stop_name": "北光小学校前",
    "stop_lat": 42.638434402732294,
    "stop_lon": 141.571875824205,
    "zone_id": "Z005090",
    "location_type": 0,
    "parent_station": "S0109000020"
   }
  },
  {
   "type": "Feature",
   "geometry": {
    "type": "Point",
    "coordinates": [
     141.571875824205,
     42.638434402732294
    ]
   },
   "properties": {
    "stop_id": "S010900002000001",
    "stop_name": "北光小学校前",
    "stop_lat": 42.638434402732294,
    "stop_lon": 141.571875824205,
    "zone_id": "Z005091",
    "location_type": 0,
    "parent_station": "S0109000020"
   }
  },
  {
   "type": "Feature",
   "geometry": {
    "type": "Point",
    "coordinates": [
     141.568681708978,
     42.6370456065973
    ]
   },
   "properties": {
    "stop_id": "S0109000021",
    "stop_name": "苫信西支店前",
    "stop_lat": 42.6370456065973,
    "stop_lon": 141.568681708978,
    "zone_id": "0",
    "location_type": 1,
    "parent_station": NaN
   }
  },
  {
   "type": "Feature",
   "geometry": {
    "type": "Point",
    "coordinates": [
     141.568681708978,
     42.6370456065973
    ]
   },
   "properties": {
    "stop_id": "S010900002100000",
    "stop_name": "苫信西支店前",
    "stop_lat": 42.6370456065973,
    "stop_lon": 141.568681708978,
    "zone_id": "Z005810",
    "location_type": 0,
    "parent_station": "S0109000021"
   }
  },
  {
   "type": "Feature",
   "geometry": {
    "type": "Point",
    "coordinates": [
     141.568681708978,
     42.6370456065973
    ]
   },
   "properties": {
    "stop_id": "S010900002100001",
    "stop_name": "苫信西支店前",
    "stop_lat": 42.6370456065973,
    "stop_lon": 141.568681708978,
    "zone_id": "Z005811",
    "location_type": 0,
    "parent_station": "S0109000021"
   }
  },
  {
   "type": "Feature",
   "geometry": {
    "type": "Point",
    "coordinates": [
     141.564758496828,
     42.6354571663031
    ]
   },
   "properties": {
    "stop_id": "S0109000022",
    "stop_name": "啓北中学校前",
    "stop_lat": 42.6354571663031,
    "stop_lon": 141.564758496828,
    "zone_id": "0",
    "location_type": 1,
    "parent_station": NaN
   }
  },
  {
   "type": "Feature",
   "geometry": {
    "type": "Point",
    "coordinates": [
     141.564758496828,
     42.6354571663031
    ]
   },
   "properties": {
    "stop_id": "S010900002200000",
    "stop_name": "啓北中学校前",
    "stop_lat": 42.6354571663031,
    "stop_lon": 141.564758496828,
    "zone_id": "Z005170",
    "location_type": 0,
    "parent_station": "S0109000022"
   }
  },
  {
   "type": "Feature",
   "geometry": {
    "type": "Point",
    "coordinates": [
     141.564758496828,
     42.6354571663031
    ]
   },
   "properties": {
    "stop_id": "S010900002200001",
    "stop_name": "啓北中学校前",
    "stop_lat": 42.6354571663031,
    "stop_lon": 141.564758496828,
    "zone_id": "Z005171",
    "location_type": 0,
    "parent_station": "S0109000022"
   }
  },
  {
   "type": "Feature",
   "geometry": {
    "type": "Point",
    "coordinates": [
     141.561251903557,
     42.6341551609824
    ]
   },
   "properties": {
    "stop_id": "S0109000023",
    "stop_name": "啓北二丁目",
    "stop_lat": 42.6341551609824,
    "stop_lon": 141.561251903557,
    "zone_id": "0",
    "location_type": 1,
    "parent_station": NaN
   }
  },
  {
   "type": "Feature",
   "geometry": {
    "type": "Point",
    "coordinates": [
     141.561251903557,
     42.6341551609824
    ]
   },
   "properties": {
    "stop_id": "S010900002300000",
    "stop_name": "啓北二丁目",
    "stop_lat": 42.6341551609824,
    "stop_lon": 141.561251903557,
    "zone_id": "Z005190",
    "location_type": 0,
    "parent_station": "S0109000023"
   }
  },
  {
   "type": "Feature",
   "geometry": {
    "type": "Point",
    "coordinates": [
     141.561251903557,
     42.6341551609824
    ]
   },
   "properties": {
    "stop_id": "S010900002300001",
    "stop_name": "啓北二丁目",
    "stop_lat": 42.6341551609824,
    "stop_lon": 141.561251903557,
    "zone_id": "Z005191",
    "location_type": 0,
    "parent_station": "S0109000023"
   }
  },
  {
   "type": "Feature",
   "geometry": {
    "type": "Point",
    "coordinates": [
     141.558752147131,
     42.6333739508771
    ]
   },
   "properties": {
    "stop_id": "S0109000024",
    "stop_name": "桜木四丁目",
    "stop_lat": 42.6333739508771,
    "stop_lon": 141.558752147131,
    "zone_id": "0",
    "location_type": 1,
    "parent_station": NaN
   }
  },
  {
   "type": "Feature",
   "geometry": {
    "type": "Point",
    "coordinates": [
     141.558752147131,
     42.6333739508771
    ]
   },
   "properties": {
    "stop_id": "S010900002400000",
    "stop_name": "桜木四丁目",
    "stop_lat": 42.6333739508771,
    "stop_lon": 141.558752147131,
    "zone_id": "Z005350",
    "location_type": 0,
    "parent_station": "S0109000024"
   }
  },
  {
   "type": "Feature",
   "geometry": {
    "type": "Point",
    "coordinates": [
     141.558752147131,
     42.6333739508771
    ]
   },
   "properties": {
    "stop_id": "S010900002400001",
    "stop_name": "桜木四丁目",
    "stop_lat": 42.6333739508771,
    "stop_lon": 141.558752147131,
    "zone_id": "Z005351",
    "location_type": 0,
    "parent_station": "S0109000024"
   }
  },
  {
   "type": "Feature",
   "geometry": {
    "type": "Point",
    "coordinates": [
     141.553960935926,
     42.6321240008829
    ]
   },
   "properties": {
    "stop_id": "S0109000025",
    "stop_name": "豊川三丁目",
    "stop_lat": 42.6321240008829,
    "stop_lon": 141.553960935926,
    "zone_id": "0",
    "location_type": 1,
    "parent_station": NaN
   }
  },
  {
   "type": "Feature",
   "geometry": {
    "type": "Point",
    "coordinates": [
     141.553960935926,
     42.6321240008829
    ]
   },
   "properties": {
    "stop_id": "S010900002500000",
    "stop_name": "豊川三丁目",
    "stop_lat": 42.6321240008829,
    "stop_lon": 141.553960935926,
    "zone_id": "Z005840",
    "location_type": 0,
    "parent_station": "S0109000025"
   }
  },
  {
   "type": "Feature",
   "geometry": {
    "type": "Point",
    "coordinates": [
     141.553960935926,
     42.6321240008829
    ]
   },
   "properties": {
    "stop_id": "S010900002500001",
    "stop_name": "豊川三丁目",
    "stop_lat": 42.6321240008829,
    "stop_lon": 141.553960935926,
    "zone_id": "Z005841",
    "location_type": 0,
    "parent_station": "S0109000025"
   }
  },
  {
   "type": "Feature",
   "geometry": {
    "type": "Point",
    "coordinates": [
     141.54930863284798,
     42.630205722022204
    ]
   },
   "properties": {
    "stop_id": "S0109000026",
    "stop_name": "北星小学校前",
    "stop_lat": 42.630205722022204,
    "stop_lon": 141.54930863284798,
    "zone_id": "0",
    "location_type": 1,
    "parent_station": NaN
   }
  },
  {
   "type": "Feature",
   "geometry": {
    "type": "Point",
    "coordinates": [
     141.54930863284798,
     42.630205722022204
    ]
   },
   "properties": {
    "stop_id": "S010900002600000",
    "stop_name": "北星小学校前",
    "stop_lat": 42.630205722022204,
    "stop_lon": 141.54930863284798,
    "zone_id": "Z006320",
    "location_type": 0,
    "parent_station": "S0109000026"
   }
  },
  {
   "type": "Feature",
   "geometry": {
    "type": "Point",
    "coordinates": [
     141.54930863284798,
     42.630205722022204
    ]
   },
   "properties": {
    "stop_id": "S010900002600001",
    "stop_name": "北星小学校前",
    "stop_lat": 42.630205722022204,
    "stop_lon": 141.54930863284798,
    "zone_id": "Z006321",
    "location_type": 0,
    "parent_station": "S0109000026"
   }
  },
  {
   "type": "Feature",
   "geometry": {
    "type": "Point",
    "coordinates": [
     141.54333698051002,
     42.6285998866968
    ]
   },
   "properties": {
    "stop_id": "S0109000027",
    "stop_name": "日新温水プール",
    "stop_lat": 42.6285998866968,
    "stop_lon": 141.54333698051002,
    "zone_id": "0",
    "location_type": 1,
    "parent_station": NaN
   }
  },
  {
   "type": "Feature",
   "geometry": {
    "type": "Point",
    "coordinates": [
     141.54333698051002,
     42.6285998866968
    ]
   },
   "properties": {
    "stop_id": "S010900002700000",
    "stop_name": "日新温水プール",
    "stop_lat": 42.6285998866968,
    "stop_lon": 141.54333698051002,
    "zone_id": "Z005990",
    "location_type": 0,
    "parent_station": "S0109000027"
   }
  },
  {
   "type": "Feature",
   "geometry": {
    "type": "Point",
    "coordinates": [
     141.54333698051002,
     42.6285998866968
    ]
   },
   "properties": {
    "stop_id": "S010900002700001",
    "stop_name": "日新温水プール",
    "stop_lat": 42.6285998866968,
    "stop_lon": 141.54333698051002,
    "zone_id": "Z005991",
    "location_type": 0,
    "parent_station": "S0109000027"
   }
  },
  {
   "type": "Feature",
   "geometry": {
    "type": "Point",
    "coordinates": [
     141.54028156120398,
     42.6311516437226
    ]
   },
   "properties": {
    "stop_id": "S0109000028",
    "stop_name": "日新メディカルタウン前",
    "stop_lat": 42.6311516437226,
    "stop_lon": 141.54028156120398,
    "zone_id": "0",
    "location_type": 1,
    "parent_station": NaN
   }
  },
  {
   "type": "Feature",
   "geometry": {
    "type": "Point",
    "coordinates": [
     141.54028156120398,
     42.6311516437226
    ]
   },
   "properties": {
    "stop_id": "S010900002800000",
    "stop_name": "日新メディカルタウン前",
    "stop_lat": 42.6311516437226,
    "stop_lon": 141.54028156120398,
    "zone_id": "Z006020",
    "location_type": 0,
    "parent_station": "S0109000028"
   }
  },
  {
   "type": "Feature",
   "geometry": {
    "type": "Point",
    "coordinates": [
     141.536184387494,
     42.6374877000029
    ]
   },
   "properties": {
    "stop_id": "S0109000029",
    "stop_name": "グリーンヒル団地入口",
    "stop_lat": 42.6374877000029,
    "stop_lon": 141.536184387494,
    "zone_id": "0",
    "location_type": 1,
    "parent_station": NaN
   }
  },
  {
   "type": "Feature",
   "geometry": {
    "type": "Point",
    "coordinates": [
     141.536184387494,
     42.6374877000029
    ]
   },
   "properties": {
    "stop_id": "S010900002900000",
    "stop_name": "グリーンヒル団地入口",
    "stop_lat": 42.6374877000029,
    "stop_lon": 141.536184387494,
    "zone_id": "Z005160",
    "location_type": 0,
    "parent_station": "S0109000029"
   }
  },
  {
   "type": "Feature",
   "geometry": {
    "type": "Point",
    "coordinates": [
     141.536357866695,
     42.6400395134229
    ]
   },
   "properties": {
    "stop_id": "S0109000030",
    "stop_name": "グリーンヒル団地",
    "stop_lat": 42.6400395134229,
    "stop_lon": 141.536357866695,
    "zone_id": "0",
    "location_type": 1,
    "parent_station": NaN
   }
  },
  {
   "type": "Feature",
   "geometry": {
    "type": "Point",
    "coordinates": [
     141.536357866695,
     42.6400395134229
    ]
   },
   "properties": {
    "stop_id": "S010900003000000",
    "stop_name": "グリーンヒル団地",
    "stop_lat": 42.6400395134229,
    "stop_lon": 141.536357866695,
    "zone_id": "Z005150",
    "location_type": 0,
    "parent_station": "S0109000030"
   }
  },
  {
   "type": "Feature",
   "geometry": {
    "type": "Point",
    "coordinates": [
     141.030163520394,
     42.34436785234929
    ]
   },
   "properties": {
    "stop_id": "S0109000031",
    "stop_name": "東町ターミナル",
    "stop_lat": 42.34436785234929,
    "stop_lon": 141.030163520394,
    "zone_id": "0",
    "location_type": 1,
    "parent_station": NaN
   }
  },
  {
   "type": "Feature",
   "geometry": {
    "type": "Point",
    "coordinates": [
     141.030163520394,
     42.34436785234929
    ]
   },
   "properties": {
    "stop_id": "S010900003100000",
    "stop_name": "東町ターミナル",
    "stop_lat": 42.34436785234929,
    "stop_lon": 141.030163520394,
    "zone_id": "Z000210",
    "location_type": 0,
    "parent_station": "S0109000031"
   }
  },
  {
   "type": "Feature",
   "geometry": {
    "type": "Point",
    "coordinates": [
     141.030163520394,
     42.34436785234929
    ]
   },
   "properties": {
    "stop_id": "S010900003100001",
    "stop_name": "東町ターミナル",
    "stop_lat": 42.34436785234929,
    "stop_lon": 141.030163520394,
    "zone_id": "Z000211",
    "location_type": 0,
    "parent_station": "S0109000031"
   }
  },
  {
   "type": "Feature",
   "geometry": {
    "type": "Point",
    "coordinates": [
     141.028323315911,
     42.346095066017604
    ]
   },
   "properties": {
    "stop_id": "S0109000032",
    "stop_name": "東町中央",
    "stop_lat": 42.346095066017604,
    "stop_lon": 141.028323315911,
    "zone_id": "0",
    "location_type": 1,
    "parent_station": NaN
   }
  },
  {
   "type": "Feature",
   "geometry": {
    "type": "Point",
    "coordinates": [
     141.028323315911,
     42.346095066017604
    ]
   },
   "properties": {
    "stop_id": "S010900003200000",
    "stop_name": "東町中央",
    "stop_lat": 42.346095066017604,
    "stop_lon": 141.028323315911,
    "zone_id": "Z000220",
    "location_type": 0,
    "parent_station": "S0109000032"
   }
  },
  {
   "type": "Feature",
   "geometry": {
    "type": "Point",
    "coordinates": [
     141.028323315911,
     42.346095066017604
    ]
   },
   "properties": {
    "stop_id": "S010900003200001",
    "stop_name": "東町中央",
    "stop_lat": 42.346095066017604,
    "stop_lon": 141.028323315911,
    "zone_id": "Z000221",
    "location_type": 0,
    "parent_station": "S0109000032"
   }
  },
  {
   "type": "Feature",
   "geometry": {
    "type": "Point",
    "coordinates": [
     141.028323315911,
     42.346095066017604
    ]
   },
   "properties": {
    "stop_id": "S010900003200002",
    "stop_name": "東町中央",
    "stop_lat": 42.346095066017604,
    "stop_lon": 141.028323315911,
    "zone_id": "Z000222",
    "location_type": 0,
    "parent_station": "S0109000032"
   }
  },
  {
   "type": "Feature",
   "geometry": {
    "type": "Point",
    "coordinates": [
     141.025198615384,
     42.3452270487255
    ]
   },
   "properties": {
    "stop_id": "S0109000033",
    "stop_name": "東町二丁目",
    "stop_lat": 42.3452270487255,
    "stop_lon": 141.025198615384,
    "zone_id": "0",
    "location_type": 1,
    "parent_station": NaN
   }
  },
  {
   "type": "Feature",
   "geometry": {
    "type": "Point",
    "coordinates": [
     141.025198615384,
     42.3452270487255
    ]
   },
   "properties": {
    "stop_id": "S010900003300000",
    "stop_name": "東町二丁目",
    "stop_lat": 42.3452270487255,
    "stop_lon": 141.025198615384,
    "zone_id": "Z000230",
    "location_type": 0,
    "parent_station": "S0109000033"
   }
  },
  {
   "type": "Feature",
   "geometry": {
    "type": "Point",
    "coordinates": [
     141.025198615384,
     42.3452270487255
    ]
   },
   "properties": {
    "stop_id": "S010900003300001",
    "stop_name": "東町二丁目",
    "stop_lat": 42.3452270487255,
    "stop_lon": 141.025198615384,
    "zone_id": "Z000231",
    "location_type": 0,
    "parent_station": "S0109000033"
   }
  },
  {
   "type": "Feature",
   "geometry": {
    "type": "Point",
    "coordinates": [
     141.020025320009,
     42.3477006521171
    ]
   },
   "properties": {
    "stop_id": "S0109000034",
    "stop_name": "中島町四丁目",
    "stop_lat": 42.3477006521171,
    "stop_lon": 141.020025320009,
    "zone_id": "0",
    "location_type": 1,
    "parent_station": NaN
   }
  },
  {
   "type": "Feature",
   "geometry": {
    "type": "Point",
    "coordinates": [
     141.020025320009,
     42.3477006521171
    ]
   },
   "properties": {
    "stop_id": "S010900003400000",
    "stop_name": "中島町四丁目",
    "stop_lat": 42.3477006521171,
    "stop_lon": 141.020025320009,
    "zone_id": "Z000790",
    "location_type": 0,
    "parent_station": "S0109000034"
   }
  },
  {
   "type": "Feature",
   "geometry": {
    "type": "Point",
    "coordinates": [
     141.020025320009,
     42.3477006521171
    ]
   },
   "properties": {
    "stop_id": "S010900003400001",
    "stop_name": "中島町四丁目",
    "stop_lat": 42.3477006521171,
    "stop_lon": 141.020025320009,
    "zone_id": "Z000791",
    "location_type": 0,
    "parent_station": "S0109000034"
   }
  },
  {
   "type": "Feature",
   "geometry": {
    "type": "Point",
    "coordinates": [
     141.024677631879,
     42.34942797918
    ]
   },
   "properties": {
    "stop_id": "S0109000035",
    "stop_name": "東室蘭駅西口",
    "stop_lat": 42.34942797918,
    "stop_lon": 141.024677631879,
    "zone_id": "0",
    "location_type": 1,
    "parent_station": NaN
   }
  },
  {
   "type": "Feature",
   "geometry": {
    "type": "Point",
    "coordinates": [
     141.024677631879,
     42.34942797918
    ]
   },
   "properties": {
    "stop_id": "S010900003500000",
    "stop_name": "東室蘭駅西口",
    "stop_lat": 42.34942797918,
    "stop_lon": 141.024677631879,
    "zone_id": "Z000780",
    "location_type": 0,
    "parent_station": "S0109000035"
   }
  },
  {
   "type": "Feature",
   "geometry": {
    "type": "Point",
    "coordinates": [
     141.024677631879,
     42.34942797918
    ]
   },
   "properties": {
    "stop_id": "S010900003500001",
    "stop_name": "東室蘭駅西口",
    "stop_lat": 42.34942797918,
    "stop_lon": 141.024677631879,
    "zone_id": "Z000781",
    "location_type": 0,
    "parent_station": "S0109000035"
   }
  },
  {
   "type": "Feature",
   "geometry": {
    "type": "Point",
    "coordinates": [
     141.02117084438498,
     42.3523442726639
    ]
   },
   "properties": {
    "stop_id": "S0109000036",
    "stop_name": "中島町三丁目",
    "stop_lat": 42.3523442726639,
    "stop_lon": 141.02117084438498,
    "zone_id": "0",
    "location_type": 1,
    "parent_station": NaN
   }
  },
  {
   "type": "Feature",
   "geometry": {
    "type": "Point",
    "coordinates": [
     141.02117084438498,
     42.3523442726639
    ]
   },
   "properties": {
    "stop_id": "S010900003600000",
    "stop_name": "中島町三丁目",
    "stop_lat": 42.3523442726639,
    "stop_lon": 141.02117084438498,
    "zone_id": "Z000770",
    "location_type": 0,
    "parent_station": "S0109000036"
   }
  },
  {
   "type": "Feature",
   "geometry": {
    "type": "Point",
    "coordinates": [
     141.02117084438498,
     42.3523442726639
    ]
   },
   "properties": {
    "stop_id": "S010900003600001",
    "stop_name": "中島町三丁目",
    "stop_lat": 42.3523442726639,
    "stop_lon": 141.02117084438498,
    "zone_id": "Z000771",
    "location_type": 0,
    "parent_station": "S0109000036"
   }
  },
  {
   "type": "Feature",
   "geometry": {
    "type": "Point",
    "coordinates": [
     141.018601506212,
     42.3546703678728
    ]
   },
   "properties": {
    "stop_id": "S0109000037",
    "stop_name": "東通",
    "stop_lat": 42.3546703678728,
    "stop_lon": 141.018601506212,
    "zone_id": "0",
    "location_type": 1,
    "parent_station": NaN
   }
  },
  {
   "type": "Feature",
   "geometry": {
    "type": "Point",
    "coordinates": [
     141.018601506212,
     42.3546703678728
    ]
   },
   "properties": {
    "stop_id": "S010900003700000",
    "stop_name": "東通",
    "stop_lat": 42.3546703678728,
    "stop_lon": 141.018601506212,
    "zone_id": "Z000290",
    "location_type": 0,
    "parent_station": "S0109000037"
   }
  },
  {
   "type": "Feature",
   "geometry": {
    "type": "Point",
    "coordinates": [
     141.015997595367,
     42.3538110393038
    ]
   },
   "properties": {
    "stop_id": "S0109000038",
    "stop_name": "中島町一丁目",
    "stop_lat": 42.3538110393038,
    "stop_lon": 141.015997595367,
    "zone_id": "0",
    "location_type": 1,
    "parent_station": NaN
   }
  },
  {
   "type": "Feature",
   "geometry": {
    "type": "Point",
    "coordinates": [
     141.015997595367,
     42.3538110393038
    ]
   },
   "properties": {
    "stop_id": "S010900003800000",
    "stop_name": "中島町一丁目",
    "stop_lat": 42.3538110393038,
    "stop_lon": 141.015997595367,
    "zone_id": "Z000280",
    "location_type": 0,
    "parent_station": "S0109000038"
   }
  },
  {
   "type": "Feature",
   "geometry": {
    "type": "Point",
    "coordinates": [
     141.01315069151198,
     42.35203166601
    ]
   },
   "properties": {
    "stop_id": "S0109000039",
    "stop_name": "仲通",
    "stop_lat": 42.35203166601,
    "stop_lon": 141.01315069151198,
    "zone_id": "0",
    "location_type": 1,
    "parent_station": NaN
   }
  },
  {
   "type": "Feature",
   "geometry": {
    "type": "Point",
    "coordinates": [
     141.01315069151198,
     42.35203166601
    ]
   },
   "properties": {
    "stop_id": "S010900003900000",
    "stop_name": "仲通",
    "stop_lat": 42.35203166601,
    "stop_lon": 141.01315069151198,
    "zone_id": "Z000270",
    "location_type": 0,
    "parent_station": "S0109000039"
   }
  },
  {
   "type": "Feature",
   "geometry": {
    "type": "Point",
    "coordinates": [
     141.009470537513,
     42.3499484912119
    ]
   },
   "properties": {
    "stop_id": "S0109000040",
    "stop_name": "中島入口",
    "stop_lat": 42.3499484912119,
    "stop_lon": 141.009470537513,
    "zone_id": "0",
    "location_type": 1,
    "parent_station": NaN
   }
  },
  {
   "type": "Feature",
   "geometry": {
    "type": "Point",
    "coordinates": [
     141.009470537513,
     42.3499484912119
    ]
   },
   "properties": {
    "stop_id": "S010900004000000",
    "stop_name": "中島入口",
    "stop_lat": 42.3499484912119,
    "stop_lon": 141.009470537513,
    "zone_id": "Z000260",
    "location_type": 0,
    "parent_station": "S0109000040"
   }
  },
  {
   "type": "Feature",
   "geometry": {
    "type": "Point",
    "coordinates": [
     141.001172465681,
     42.3532032064738
    ]
   },
   "properties": {
    "stop_id": "S0109000041",
    "stop_name": "高平町",
    "stop_lat": 42.3532032064738,
    "stop_lon": 141.001172465681,
    "zone_id": "0",
    "location_type": 1,
    "parent_station": NaN
   }
  },
  {
   "type": "Feature",
   "geometry": {
    "type": "Point",
    "coordinates": [
     141.001172465681,
     42.3532032064738
    ]
   },
   "properties": {
    "stop_id": "S010900004100000",
    "stop_name": "高平町",
    "stop_lat": 42.3532032064738,
    "stop_lon": 141.001172465681,
    "zone_id": "Z000760",
    "location_type": 0,
    "parent_station": "S0109000041"
   }
  },
  {
   "type": "Feature",
   "geometry": {
    "type": "Point",
    "coordinates": [
     140.99124267724,
     42.3544528993591
    ]
   },
   "properties": {
    "stop_id": "S0109000042",
    "stop_name": "南高平",
    "stop_lat": 42.3544528993591,
    "stop_lon": 140.99124267724,
    "zone_id": "0",
    "location_type": 1,
    "parent_station": NaN
   }
  },
  {
   "type": "Feature",
   "geometry": {
    "type": "Point",
    "coordinates": [
     140.99124267724,
     42.3544528993591
    ]
   },
   "properties": {
    "stop_id": "S010900004200000",
    "stop_name": "南高平",
    "stop_lat": 42.3544528993591,
    "stop_lon": 140.99124267724,
    "zone_id": "Z000750",
    "location_type": 0,
    "parent_station": "S0109000042"
   }
  },
  {
   "type": "Feature",
   "geometry": {
    "type": "Point",
    "coordinates": [
     140.98718023206,
     42.3605893248209
    ]
   },
   "properties": {
    "stop_id": "S0109000043",
    "stop_name": "港北町入口",
    "stop_lat": 42.3605893248209,
    "stop_lon": 140.98718023206,
    "zone_id": "0",
    "location_type": 1,
    "parent_station": NaN
   }
  },
  {
   "type": "Feature",
   "geometry": {
    "type": "Point",
    "coordinates": [
     140.98718023206,
     42.3605893248209
    ]
   },
   "properties": {
    "stop_id": "S010900004300000",
    "stop_name": "港北町入口",
    "stop_lat": 42.3605893248209,
    "stop_lon": 140.98718023206,
    "zone_id": "Z000740",
    "location_type": 0,
    "parent_station": "S0109000043"
   }
  },
  {
   "type": "Feature",
   "geometry": {
    "type": "Point",
    "coordinates": [
     140.985235893939,
     42.3617870794125
    ]
   },
   "properties": {
    "stop_id": "S0109000044",
    "stop_name": "港北町一丁目",
    "stop_lat": 42.3617870794125,
    "stop_lon": 140.985235893939,
    "zone_id": "0",
    "location_type": 1,
    "parent_station": NaN
   }
  },
  {
   "type": "Feature",
   "geometry": {
    "type": "Point",
    "coordinates": [
     140.985235893939,
     42.3617870794125
    ]
   },
   "properties": {
    "stop_id": "S010900004400000",
    "stop_name": "港北町一丁目",
    "stop_lat": 42.3617870794125,
    "stop_lon": 140.985235893939,
    "zone_id": "Z000730",
    "location_type": 0,
    "parent_station": "S0109000044"
   }
  },
  {
   "type": "Feature",
   "geometry": {
    "type": "Point",
    "coordinates": [
     140.983117971112,
     42.3627244421572
    ]
   },
   "properties": {
    "stop_id": "S0109000045",
    "stop_name": "春雨橋",
    "stop_lat": 42.3627244421572,
    "stop_lon": 140.983117971112,
    "zone_id": "0",
    "location_type": 1,
    "parent_station": NaN
   }
  },
  {
   "type": "Feature",
   "geometry": {
    "type": "Point",
    "coordinates": [
     140.983117971112,
     42.3627244421572
    ]
   },
   "properties": {
    "stop_id": "S010900004500000",
    "stop_name": "春雨橋",
    "stop_lat": 42.3627244421572,
    "stop_lon": 140.983117971112,
    "zone_id": "Z000720",
    "location_type": 0,
    "parent_station": "S0109000045"
   }
  },
  {
   "type": "Feature",
   "geometry": {
    "type": "Point",
    "coordinates": [
     140.978951739976,
     42.360780132904395
    ]
   },
   "properties": {
    "stop_id": "S0109000046",
    "stop_name": "本輪西二丁目",
    "stop_lat": 42.360780132904395,
    "stop_lon": 140.978951739976,
    "zone_id": "0",
    "location_type": 1,
    "parent_station": NaN
   }
  },
  {
   "type": "Feature",
   "geometry": {
    "type": "Point",
    "coordinates": [
     140.978951739976,
     42.360780132904395
    ]
   },
   "properties": {
    "stop_id": "S010900004600000",
    "stop_name": "本輪西二丁目",
    "stop_lat": 42.360780132904395,
    "stop_lon": 140.978951739976,
    "zone_id": "Z000710",
    "location_type": 0,
    "parent_station": "S0109000046"
   }
  },
  {
   "type": "Feature",
   "geometry": {
    "type": "Point",
    "coordinates": [
     140.977146409491,
     42.359148331464205
    ]
   },
   "properties": {
    "stop_id": "S0109000047",
    "stop_name": "本輪西駅前",
    "stop_lat": 42.359148331464205,
    "stop_lon": 140.977146409491,
    "zone_id": "0",
    "location_type": 1,
    "parent_station": NaN
   }
  },
  {
   "type": "Feature",
   "geometry": {
    "type": "Point",
    "coordinates": [
     140.977146409491,
     42.359148331464205
    ]
   },
   "properties": {
    "stop_id": "S010900004700000",
    "stop_name": "本輪西駅前",
    "stop_lat": 42.359148331464205,
    "stop_lon": 140.977146409491,
    "zone_id": "Z000700",
    "location_type": 0,
    "parent_station": "S0109000047"
   }
  },
  {
   "type": "Feature",
   "geometry": {
    "type": "Point",
    "coordinates": [
     140.96443898203302,
     42.3623942900875
    ]
   },
   "properties": {
    "stop_id": "S0109000048",
    "stop_name": "幌萌町",
    "stop_lat": 42.3623942900875,
    "stop_lon": 140.96443898203302,
    "zone_id": "0",
    "location_type": 1,
    "parent_station": NaN
   }
  },
  {
   "type": "Feature",
   "geometry": {
    "type": "Point",
    "coordinates": [
     140.96443898203302,
     42.3623942900875
    ]
   },
   "properties": {
    "stop_id": "S010900004800000",
    "stop_name": "幌萌町",
    "stop_lat": 42.3623942900875,
    "stop_lon": 140.96443898203302,
    "zone_id": "Z000690",
    "location_type": 0,
    "parent_station": "S0109000048"
   }
  },
  {
   "type": "Feature",
   "geometry": {
    "type": "Point",
    "coordinates": [
     140.951974752197,
     42.3621163243244
    ]
   },
   "properties": {
    "stop_id": "S0109000049",
    "stop_name": "ＪＸＴＧエネルギー前",
    "stop_lat": 42.3621163243244,
    "stop_lon": 140.951974752197,
    "zone_id": "0",
    "location_type": 1,
    "parent_station": NaN
   }
  },
  {
   "type": "Feature",
   "geometry": {
    "type": "Point",
    "coordinates": [
     140.951974752197,
     42.3621163243244
    ]
   },
   "properties": {
    "stop_id": "S010900004900000",
    "stop_name": "ＪＸＴＧエネルギー前",
    "stop_lat": 42.3621163243244,
    "stop_lon": 140.951974752197,
    "zone_id": "Z000680",
    "location_type": 0,
    "parent_station": "S0109000049"
   }
  },
  {
   "type": "Feature",
   "geometry": {
    "type": "Point",
    "coordinates": [
     140.94992609500602,
     42.3668119668466
    ]
   },
   "properties": {
    "stop_id": "S0109000050",
    "stop_name": "陣屋",
    "stop_lat": 42.3668119668466,
    "stop_lon": 140.94992609500602,
    "zone_id": "0",
    "location_type": 1,
    "parent_station": NaN
   }
  },
  {
   "type": "Feature",
   "geometry": {
    "type": "Point",
    "coordinates": [
     140.94992609500602,
     42.3668119668466
    ]
   },
   "properties": {
    "stop_id": "S010900005000000",
    "stop_name": "陣屋",
    "stop_lat": 42.3668119668466,
    "stop_lon": 140.94992609500602,
    "zone_id": "Z000670",
    "location_type": 0,
    "parent_station": "S0109000050"
   }
  },
  {
   "type": "Feature",
   "geometry": {
    "type": "Point",
    "coordinates": [
     140.941107264263,
     42.3693896620933
    ]
   },
   "properties": {
    "stop_id": "S0109000051",
    "stop_name": "西陣屋",
    "stop_lat": 42.3693896620933,
    "stop_lon": 140.941107264263,
    "zone_id": "0",
    "location_type": 1,
    "parent_station": NaN
   }
  },
  {
   "type": "Feature",
   "geometry": {
    "type": "Point",
    "coordinates": [
     140.941107264263,
     42.3693896620933
    ]
   },
   "properties": {
    "stop_id": "S010900005100000",
    "stop_name": "西陣屋",
    "stop_lat": 42.3693896620933,
    "stop_lon": 140.941107264263,
    "zone_id": "Z000660",
    "location_type": 0,
    "parent_station": "S0109000051"
   }
  },
  {
   "type": "Feature",
   "geometry": {
    "type": "Point",
    "coordinates": [
     140.926143011844,
     42.3741111179202
    ]
   },
   "properties": {
    "stop_id": "S0109000052",
    "stop_name": "崎守町",
    "stop_lat": 42.3741111179202,
    "stop_lon": 140.926143011844,
    "zone_id": "0",
    "location_type": 1,
    "parent_station": NaN
   }
  },
  {
   "type": "Feature",
   "geometry": {
    "type": "Point",
    "coordinates": [
     140.926143011844,
     42.3741111179202
    ]
   },
   "properties": {
    "stop_id": "S010900005200000",
    "stop_name": "崎守町",
    "stop_lat": 42.3741111179202,
    "stop_lon": 140.926143011844,
    "zone_id": "Z000650",
    "location_type": 0,
    "parent_station": "S0109000052"
   }
  },
  {
   "type": "Feature",
   "geometry": {
    "type": "Point",
    "coordinates": [
     140.936315770117,
     42.3742848881356
    ]
   },
   "properties": {
    "stop_id": "S0109000053",
    "stop_name": "白鳥台二丁目",
    "stop_lat": 42.3742848881356,
    "stop_lon": 140.936315770117,
    "zone_id": "0",
    "location_type": 1,
    "parent_station": NaN
   }
  },
  {
   "type": "Feature",
   "geometry": {
    "type": "Point",
    "coordinates": [
     140.936315770117,
     42.3742848881356
    ]
   },
   "properties": {
    "stop_id": "S010900005300000",
    "stop_name": "白鳥台二丁目",
    "stop_lat": 42.3742848881356,
    "stop_lon": 140.936315770117,
    "zone_id": "Z000640",
    "location_type": 0,
    "parent_station": "S0109000053"
   }
  },
  {
   "type": "Feature",
   "geometry": {
    "type": "Point",
    "coordinates": [
     140.942217907047,
     42.3775572106649
    ]
   },
   "properties": {
    "stop_id": "S0109000054",
    "stop_name": "白鳥台五丁目",
    "stop_lat": 42.3775572106649,
    "stop_lon": 140.942217907047,
    "zone_id": "0",
    "location_type": 1,
    "parent_station": NaN
   }
  },
  {
   "type": "Feature",
   "geometry": {
    "type": "Point",
    "coordinates": [
     140.942217907047,
     42.3775572106649
    ]
   },
   "properties": {
    "stop_id": "S010900005400000",
    "stop_name": "白鳥台五丁目",
    "stop_lat": 42.3775572106649,
    "stop_lon": 140.942217907047,
    "zone_id": "Z000630",
    "location_type": 0,
    "parent_station": "S0109000054"
   }
  },
  {
   "type": "Feature",
   "geometry": {
    "type": "Point",
    "coordinates": [
     140.93999585377898,
     42.3778956773156
    ]
   },
   "properties": {
    "stop_id": "S0109000055",
    "stop_name": "白鳥台中央",
    "stop_lat": 42.3778956773156,
    "stop_lon": 140.93999585377898,
    "zone_id": "0",
    "location_type": 1,
    "parent_station": NaN
   }
  },
  {
   "type": "Feature",
   "geometry": {
    "type": "Point",
    "coordinates": [
     140.93999585377898,
     42.3778956773156
    ]
   },
   "properties": {
    "stop_id": "S010900005500000",
    "stop_name": "白鳥台中央",
    "stop_lat": 42.3778956773156,
    "stop_lon": 140.93999585377898,
    "zone_id": "Z000590",
    "location_type": 0,
    "parent_station": "S0109000055"
   }
  },
  {
   "type": "Feature",
   "geometry": {
    "type": "Point",
    "coordinates": [
     140.943467713725,
     42.3795014689809
    ]
   },
   "properties": {
    "stop_id": "S0109000056",
    "stop_name": "白鳥台四丁目",
    "stop_lat": 42.3795014689809,
    "stop_lon": 140.943467713725,
    "zone_id": "0",
    "location_type": 1,
    "parent_station": NaN
   }
  },
  {
   "type": "Feature",
   "geometry": {
    "type": "Point",
    "coordinates": [
     140.943467713725,
     42.3795014689809
    ]
   },
   "properties": {
    "stop_id": "S010900005600000",
    "stop_name": "白鳥台四丁目",
    "stop_lat": 42.3795014689809,
    "stop_lon": 140.943467713725,
    "zone_id": "Z000620",
    "location_type": 0,
    "parent_station": "S0109000056"
   }
  },
  {
   "type": "Feature",
   "geometry": {
    "type": "Point",
    "coordinates": [
     140.941245573736,
     42.3817234147276
    ]
   },
   "properties": {
    "stop_id": "S0109000057",
    "stop_name": "雇用促進住宅入口",
    "stop_lat": 42.3817234147276,
    "stop_lon": 140.941245573736,
    "zone_id": "0",
    "location_type": 1,
    "parent_station": NaN
   }
  },
  {
   "type": "Feature",
   "geometry": {
    "type": "Point",
    "coordinates": [
     140.941245573736,
     42.3817234147276
    ]
   },
   "properties": {
    "stop_id": "S010900005700000",
    "stop_name": "雇用促進住宅入口",
    "stop_lat": 42.3817234147276,
    "stop_lon": 140.941245573736,
    "zone_id": "Z000610",
    "location_type": 0,
    "parent_station": "S0109000057"
   }
  },
  {
   "type": "Feature",
   "geometry": {
    "type": "Point",
    "coordinates": [
     140.937287634255,
     42.3803085663706
    ]
   },
   "properties": {
    "stop_id": "S0109000058",
    "stop_name": "北公園前",
    "stop_lat": 42.3803085663706,
    "stop_lon": 140.937287634255,
    "zone_id": "0",
    "location_type": 1,
    "parent_station": NaN
   }
  },
  {
   "type": "Feature",
   "geometry": {
    "type": "Point",
    "coordinates": [
     140.937287634255,
     42.3803085663706
    ]
   },
   "properties": {
    "stop_id": "S010900005800000",
    "stop_name": "北公園前",
    "stop_lat": 42.3803085663706,
    "stop_lon": 140.937287634255,
    "zone_id": "Z000600",
    "location_type": 0,
    "parent_station": "S0109000058"
   }
  },
  {
   "type": "Feature",
   "geometry": {
    "type": "Point",
    "coordinates": [
     140.933885155839,
     42.3799439626033
    ]
   },
   "properties": {
    "stop_id": "S0109000059",
    "stop_name": "白鳥台入口",
    "stop_lat": 42.3799439626033,
    "stop_lon": 140.933885155839,
    "zone_id": "0",
    "location_type": 1,
    "parent_station": NaN
   }
  },
  {
   "type": "Feature",
   "geometry": {
    "type": "Point",
    "coordinates": [
     140.933885155839,
     42.3799439626033
    ]
   },
   "properties": {
    "stop_id": "S010900005900000",
    "stop_name": "白鳥台入口",
    "stop_lat": 42.3799439626033,
    "stop_lon": 140.933885155839,
    "zone_id": "Z003110",
    "location_type": 0,
    "parent_station": "S0109000059"
   }
  },
  {
   "type": "Feature",
   "geometry": {
    "type": "Point",
    "coordinates": [
     140.927288408337,
     42.3815322191615
    ]
   },
   "properties": {
    "stop_id": "S0109000060",
    "stop_name": "幡守神社入口",
    "stop_lat": 42.3815322191615,
    "stop_lon": 140.927288408337,
    "zone_id": "0",
    "location_type": 1,
    "parent_station": NaN
   }
  },
  {
   "type": "Feature",
   "geometry": {
    "type": "Point",
    "coordinates": [
     140.927288408337,
     42.3815322191615
    ]
   },
   "properties": {
    "stop_id": "S010900006000000",
    "stop_name": "幡守神社入口",
    "stop_lat": 42.3815322191615,
    "stop_lon": 140.927288408337,
    "zone_id": "Z003120",
    "location_type": 0,
    "parent_station": "S0109000060"
   }
  },
  {
   "type": "Feature",
   "geometry": {
    "type": "Point",
    "coordinates": [
     140.91756698988002,
     42.381610166017204
    ]
   },
   "properties": {
    "stop_id": "S0109000061",
    "stop_name": "石川町",
    "stop_lat": 42.381610166017204,
    "stop_lon": 140.91756698988002,
    "zone_id": "0",
    "location_type": 1,
    "parent_station": NaN
   }
  },
  {
   "type": "Feature",
   "geometry": {
    "type": "Point",
    "coordinates": [
     140.91756698988002,
     42.381610166017204
    ]
   },
   "properties": {
    "stop_id": "S010900006100000",
    "stop_name": "石川町",
    "stop_lat": 42.381610166017204,
    "stop_lon": 140.91756698988002,
    "zone_id": "Z003130",
    "location_type": 0,
    "parent_station": "S0109000061"
   }
  },
  {
   "type": "Feature",
   "geometry": {
    "type": "Point",
    "coordinates": [
     140.917289263144,
     42.381002587264106
    ]
   },
   "properties": {
    "stop_id": "S0109000062",
    "stop_name": "石川町げんき館前",
    "stop_lat": 42.381002587264106,
    "stop_lon": 140.917289263144,
    "zone_id": "0",
    "location_type": 1,
    "parent_station": NaN
   }
  },
  {
   "type": "Feature",
   "geometry": {
    "type": "Point",
    "coordinates": [
     140.917289263144,
     42.381002587264106
    ]
   },
   "properties": {
    "stop_id": "S010900006200000",
    "stop_name": "石川町げんき館前",
    "stop_lat": 42.381002587264106,
    "stop_lon": 140.917289263144,
    "zone_id": "Z009420",
    "location_type": 0,
    "parent_station": "S0109000062"
   }
  },
  {
   "type": "Feature",
   "geometry": {
    "type": "Point",
    "coordinates": [
     141.016657142514,
     42.356423618603394
    ]
   },
   "properties": {
    "stop_id": "S0109000063",
    "stop_name": "製鉄記念室蘭病院前",
    "stop_lat": 42.356423618603394,
    "stop_lon": 141.016657142514,
    "zone_id": "0",
    "location_type": 1,
    "parent_station": NaN
   }
  },
  {
   "type": "Feature",
   "geometry": {
    "type": "Point",
    "coordinates": [
     141.016657142514,
     42.356423618603394
    ]
   },
   "properties": {
    "stop_id": "S010900006300000",
    "stop_name": "製鉄記念室蘭病院前",
    "stop_lat": 42.356423618603394,
    "stop_lon": 141.016657142514,
    "zone_id": "Z001380",
    "location_type": 0,
    "parent_station": "S0109000063"
   }
  },
  {
   "type": "Feature",
   "geometry": {
    "type": "Point",
    "coordinates": [
     141.02714258743998,
     42.3519798326216
    ]
   },
   "properties": {
    "stop_id": "S0109000064",
    "stop_name": "体育館前［室蘭市］",
    "stop_lat": 42.3519798326216,
    "stop_lon": 141.02714258743998,
    "zone_id": "0",
    "location_type": 1,
    "parent_station": NaN
   }
  },
  {
   "type": "Feature",
   "geometry": {
    "type": "Point",
    "coordinates": [
     141.02714258743998,
     42.3519798326216
    ]
   },
   "properties": {
    "stop_id": "S010900006400000",
    "stop_name": "体育館前［室蘭市］",
    "stop_lat": 42.3519798326216,
    "stop_lon": 141.02714258743998,
    "zone_id": "Z001070",
    "location_type": 0,
    "parent_station": "S0109000064"
   }
  },
  {
   "type": "Feature",
   "geometry": {
    "type": "Point",
    "coordinates": [
     141.028982660044,
     42.3531168959195
    ]
   },
   "properties": {
    "stop_id": "S0109000065",
    "stop_name": "宮の森四丁目",
    "stop_lat": 42.3531168959195,
    "stop_lon": 141.028982660044,
    "zone_id": "0",
    "location_type": 1,
    "parent_station": NaN
   }
  },
  {
   "type": "Feature",
   "geometry": {
    "type": "Point",
    "coordinates": [
     141.028982660044,
     42.3531168959195
    ]
   },
   "properties": {
    "stop_id": "S010900006500000",
    "stop_name": "宮の森四丁目",
    "stop_lat": 42.3531168959195,
    "stop_lon": 141.028982660044,
    "zone_id": "Z000540",
    "location_type": 0,
    "parent_station": "S0109000065"
   }
  },
  {
   "type": "Feature",
   "geometry": {
    "type": "Point",
    "coordinates": [
     141.032419777472,
     42.3552261053544
    ]
   },
   "properties": {
    "stop_id": "S0109000066",
    "stop_name": "宮の森三丁目",
    "stop_lat": 42.3552261053544,
    "stop_lon": 141.032419777472,
    "zone_id": "0",
    "location_type": 1,
    "parent_station": NaN
   }
  },
  {
   "type": "Feature",
   "geometry": {
    "type": "Point",
    "coordinates": [
     141.032419777472,
     42.3552261053544
    ]
   },
   "properties": {
    "stop_id": "S010900006600000",
    "stop_name": "宮の森三丁目",
    "stop_lat": 42.3552261053544,
    "stop_lon": 141.032419777472,
    "zone_id": "Z001200",
    "location_type": 0,
    "parent_station": "S0109000066"
   }
  },
  {
   "type": "Feature",
   "geometry": {
    "type": "Point",
    "coordinates": [
     141.03550971389998,
     42.3570662402831
    ]
   },
   "properties": {
    "stop_id": "S0109000067",
    "stop_name": "高砂一丁目［室蘭市］",
    "stop_lat": 42.3570662402831,
    "stop_lon": 141.03550971389998,
    "zone_id": "0",
    "location_type": 1,
    "parent_station": NaN
   }
  },
  {
   "type": "Feature",
   "geometry": {
    "type": "Point",
    "coordinates": [
     141.03550971389998,
     42.3570662402831
    ]
   },
   "properties": {
    "stop_id": "S010900006700000",
    "stop_name": "高砂一丁目［室蘭市］",
    "stop_lat": 42.3570662402831,
    "stop_lon": 141.03550971389998,
    "zone_id": "Z001210",
    "location_type": 0,
    "parent_station": "S0109000067"
   }
  },
  {
   "type": "Feature",
   "geometry": {
    "type": "Point",
    "coordinates": [
     141.037280351823,
     42.3581165060965
    ]
   },
   "properties": {
    "stop_id": "S0109000068",
    "stop_name": "緑ヶ丘［室蘭市高砂町］",
    "stop_lat": 42.3581165060965,
    "stop_lon": 141.037280351823,
    "zone_id": "0",
    "location_type": 1,
    "parent_station": NaN
   }
  },
  {
   "type": "Feature",
   "geometry": {
    "type": "Point",
    "coordinates": [
     141.037280351823,
     42.3581165060965
    ]
   },
   "properties": {
    "stop_id": "S010900006800000",
    "stop_name": "緑ヶ丘［室蘭市高砂町］",
    "stop_lat": 42.3581165060965,
    "stop_lon": 141.037280351823,
    "zone_id": "Z001220",
    "location_type": 0,
    "parent_station": "S0109000068"
   }
  },
  {
   "type": "Feature",
   "geometry": {
    "type": "Point",
    "coordinates": [
     141.040405005193,
     42.3600087193946
    ]
   },
   "properties": {
    "stop_id": "S0109000069",
    "stop_name": "ＪＲアパート前",
    "stop_lat": 42.3600087193946,
    "stop_lon": 141.040405005193,
    "zone_id": "0",
    "location_type": 1,
    "parent_station": NaN
   }
  },
  {
   "type": "Feature",
   "geometry": {
    "type": "Point",
    "coordinates": [
     141.040405005193,
     42.3600087193946
    ]
   },
   "properties": {
    "stop_id": "S010900006900000",
    "stop_name": "ＪＲアパート前",
    "stop_lat": 42.3600087193946,
    "stop_lon": 141.040405005193,
    "zone_id": "Z001230",
    "location_type": 0,
    "parent_station": "S0109000069"
   }
  },
  {
   "type": "Feature",
   "geometry": {
    "type": "Point",
    "coordinates": [
     141.04366853472,
     42.36192697399971
    ]
   },
   "properties": {
    "stop_id": "S0109000070",
    "stop_name": "上鷲別入口",
    "stop_lat": 42.36192697399971,
    "stop_lon": 141.04366853472,
    "zone_id": "0",
    "location_type": 1,
    "parent_station": NaN
   }
  },
  {
   "type": "Feature",
   "geometry": {
    "type": "Point",
    "coordinates": [
     141.04366853472,
     42.36192697399971
    ]
   },
   "properties": {
    "stop_id": "S010900007000000",
    "stop_name": "上鷲別入口",
    "stop_lat": 42.36192697399971,
    "stop_lon": 141.04366853472,
    "zone_id": "Z001240",
    "location_type": 0,
    "parent_station": "S0109000070"
   }
  },
  {
   "type": "Feature",
   "geometry": {
    "type": "Point",
    "coordinates": [
     141.046862625968,
     42.3638365477649
    ]
   },
   "properties": {
    "stop_id": "S0109000071",
    "stop_name": "旭ヶ丘団地",
    "stop_lat": 42.3638365477649,
    "stop_lon": 141.046862625968,
    "zone_id": "0",
    "location_type": 1,
    "parent_station": NaN
   }
  },
  {
   "type": "Feature",
   "geometry": {
    "type": "Point",
    "coordinates": [
     141.046862625968,
     42.3638365477649
    ]
   },
   "properties": {
    "stop_id": "S010900007100000",
    "stop_name": "旭ヶ丘団地",
    "stop_lat": 42.3638365477649,
    "stop_lon": 141.046862625968,
    "zone_id": "Z001250",
    "location_type": 0,
    "parent_station": "S0109000071"
   }
  },
  {
   "type": "Feature",
   "geometry": {
    "type": "Point",
    "coordinates": [
     141.05016089121798,
     42.3653989382625
    ]
   },
   "properties": {
    "stop_id": "S0109000072",
    "stop_name": "若草小学校前",
    "stop_lat": 42.3653989382625,
    "stop_lon": 141.05016089121798,
    "zone_id": "0",
    "location_type": 1,
    "parent_station": NaN
   }
  },
  {
   "type": "Feature",
   "geometry": {
    "type": "Point",
    "coordinates": [
     141.05016089121798,
     42.3653989382625
    ]
   },
   "properties": {
    "stop_id": "S010900007200000",
    "stop_name": "若草小学校前",
    "stop_lat": 42.3653989382625,
    "stop_lon": 141.05016089121798,
    "zone_id": "Z002110",
    "location_type": 0,
    "parent_station": "S0109000072"
   }
  },
  {
   "type": "Feature",
   "geometry": {
    "type": "Point",
    "coordinates": [
     141.05227868416299,
     42.3672824543482
    ]
   },
   "properties": {
    "stop_id": "S0109000073",
    "stop_name": "若草一丁目",
    "stop_lat": 42.3672824543482,
    "stop_lon": 141.05227868416299,
    "zone_id": "0",
    "location_type": 1,
    "parent_station": NaN
   }
  },
  {
   "type": "Feature",
   "geometry": {
    "type": "Point",
    "coordinates": [
     141.05227868416299,
     42.3672824543482
    ]
   },
   "properties": {
    "stop_id": "S010900007300000",
    "stop_name": "若草一丁目",
    "stop_lat": 42.3672824543482,
    "stop_lon": 141.05227868416299,
    "zone_id": "Z002120",
    "location_type": 0,
    "parent_station": "S0109000073"
   }
  },
  {
   "type": "Feature",
   "geometry": {
    "type": "Point",
    "coordinates": [
     141.056132392494,
     42.370285672658206
    ]
   },
   "properties": {
    "stop_id": "S0109000074",
    "stop_name": "若草二丁目",
    "stop_lat": 42.370285672658206,
    "stop_lon": 141.056132392494,
    "zone_id": "0",
    "location_type": 1,
    "parent_station": NaN
   }
  },
  {
   "type": "Feature",
   "geometry": {
    "type": "Point",
    "coordinates": [
     141.056132392494,
     42.370285672658206
    ]
   },
   "properties": {
    "stop_id": "S010900007400000",
    "stop_name": "若草二丁目",
    "stop_lat": 42.370285672658206,
    "stop_lon": 141.056132392494,
    "zone_id": "Z002130",
    "location_type": 0,
    "parent_station": "S0109000074"
   }
  },
  {
   "type": "Feature",
   "geometry": {
    "type": "Point",
    "coordinates": [
     141.058701538042,
     42.3721431577454
    ]
   },
   "properties": {
    "stop_id": "S0109000075",
    "stop_name": "公園入口",
    "stop_lat": 42.3721431577454,
    "stop_lon": 141.058701538042,
    "zone_id": "0",
    "location_type": 1,
    "parent_station": NaN
   }
  },
  {
   "type": "Feature",
   "geometry": {
    "type": "Point",
    "coordinates": [
     141.058701538042,
     42.3721431577454
    ]
   },
   "properties": {
    "stop_id": "S010900007500000",
    "stop_name": "公園入口",
    "stop_lat": 42.3721431577454,
    "stop_lon": 141.058701538042,
    "zone_id": "Z002140",
    "location_type": 0,
    "parent_station": "S0109000075"
   }
  },
  {
   "type": "Feature",
   "geometry": {
    "type": "Point",
    "coordinates": [
     141.063214899823,
     42.3754501745278
    ]
   },
   "properties": {
    "stop_id": "S0109000076",
    "stop_name": "新生町一丁目",
    "stop_lat": 42.3754501745278,
    "stop_lon": 141.063214899823,
    "zone_id": "0",
    "location_type": 1,
    "parent_station": NaN
   }
  },
  {
   "type": "Feature",
   "geometry": {
    "type": "Point",
    "coordinates": [
     141.063214899823,
     42.3754501745278
    ]
   },
   "properties": {
    "stop_id": "S010900007600000",
    "stop_name": "新生町一丁目",
    "stop_lat": 42.3754501745278,
    "stop_lon": 141.063214899823,
    "zone_id": "Z002150",
    "location_type": 0,
    "parent_station": "S0109000076"
   }
  },
  {
   "type": "Feature",
   "geometry": {
    "type": "Point",
    "coordinates": [
     141.065714524769,
     42.379086981972
    ]
   },
   "properties": {
    "stop_id": "S0109000077",
    "stop_name": "新生町二丁目",
    "stop_lat": 42.379086981972,
    "stop_lon": 141.065714524769,
    "zone_id": "0",
    "location_type": 1,
    "parent_station": NaN
   }
  },
  {
   "type": "Feature",
   "geometry": {
    "type": "Point",
    "coordinates": [
     141.065714524769,
     42.379086981972
    ]
   },
   "properties": {
    "stop_id": "S010900007700000",
    "stop_name": "新生町二丁目",
    "stop_lat": 42.379086981972,
    "stop_lon": 141.065714524769,
    "zone_id": "Z002160",
    "location_type": 0,
    "parent_station": "S0109000077"
   }
  },
  {
   "type": "Feature",
   "geometry": {
    "type": "Point",
    "coordinates": [
     141.067380937935,
     42.38158674370371
    ]
   },
   "properties": {
    "stop_id": "S0109000078",
    "stop_name": "富岸二丁目",
    "stop_lat": 42.38158674370371,
    "stop_lon": 141.067380937935,
    "zone_id": "0",
    "location_type": 1,
    "parent_station": NaN
   }
  },
  {
   "type": "Feature",
   "geometry": {
    "type": "Point",
    "coordinates": [
     141.067380937935,
     42.38158674370371
    ]
   },
   "properties": {
    "stop_id": "S010900007800000",
    "stop_name": "富岸二丁目",
    "stop_lat": 42.38158674370371,
    "stop_lon": 141.067380937935,
    "zone_id": "Z001360",
    "location_type": 0,
    "parent_station": "S0109000078"
   }
  },
  {
   "type": "Feature",
   "geometry": {
    "type": "Point",
    "coordinates": [
     141.069845912279,
     42.3837306546684
    ]
   },
   "properties": {
    "stop_id": "S0109000079",
    "stop_name": "富岸小学校前",
    "stop_lat": 42.3837306546684,
    "stop_lon": 141.069845912279,
    "zone_id": "0",
    "location_type": 1,
    "parent_station": NaN
   }
  },
  {
   "type": "Feature",
   "geometry": {
    "type": "Point",
    "coordinates": [
     141.069845912279,
     42.3837306546684
    ]
   },
   "properties": {
    "stop_id": "S010900007900000",
    "stop_name": "富岸小学校前",
    "stop_lat": 42.3837306546684,
    "stop_lon": 141.069845912279,
    "zone_id": "Z001370",
    "location_type": 0,
    "parent_station": "S0109000079"
   }
  },
  {
   "type": "Feature",
   "geometry": {
    "type": "Point",
    "coordinates": [
     141.072553917199,
     42.385978725403795
    ]
   },
   "properties": {
    "stop_id": "S0109000080",
    "stop_name": "若山町三丁目",
    "stop_lat": 42.385978725403795,
    "stop_lon": 141.072553917199,
    "zone_id": "0",
    "location_type": 1,
    "parent_station": NaN
   }
  },
  {
   "type": "Feature",
   "geometry": {
    "type": "Point",
    "coordinates": [
     141.072553917199,
     42.385978725403795
    ]
   },
   "properties": {
    "stop_id": "S010900008000000",
    "stop_name": "若山町三丁目",
    "stop_lat": 42.385978725403795,
    "stop_lon": 141.072553917199,
    "zone_id": "Z001100",
    "location_type": 0,
    "parent_station": "S0109000080"
   }
  },
  {
   "type": "Feature",
   "geometry": {
    "type": "Point",
    "coordinates": [
     141.076511728796,
     42.390171054455294
    ]
   },
   "properties": {
    "stop_id": "S0109000081",
    "stop_name": "若山営業所前",
    "stop_lat": 42.390171054455294,
    "stop_lon": 141.076511728796,
    "zone_id": "0",
    "location_type": 1,
    "parent_station": NaN
   }
  },
  {
   "type": "Feature",
   "geometry": {
    "type": "Point",
    "coordinates": [
     141.076511728796,
     42.390171054455294
    ]
   },
   "properties": {
    "stop_id": "S010900008100000",
    "stop_name": "若山営業所前",
    "stop_lat": 42.390171054455294,
    "stop_lon": 141.076511728796,
    "zone_id": "Z001110",
    "location_type": 0,
    "parent_station": "S0109000081"
   }
  },
  {
   "type": "Feature",
   "geometry": {
    "type": "Point",
    "coordinates": [
     141.07838648597001,
     42.3920632459234
    ]
   },
   "properties": {
    "stop_id": "S0109000082",
    "stop_name": "総合体育館前［登別市］",
    "stop_lat": 42.3920632459234,
    "stop_lon": 141.07838648597001,
    "zone_id": "0",
    "location_type": 1,
    "parent_station": NaN
   }
  },
  {
   "type": "Feature",
   "geometry": {
    "type": "Point",
    "coordinates": [
     141.07838648597001,
     42.3920632459234
    ]
   },
   "properties": {
    "stop_id": "S010900008200000",
    "stop_name": "総合体育館前［登別市］",
    "stop_lat": 42.3920632459234,
    "stop_lon": 141.07838648597001,
    "zone_id": "Z001120",
    "location_type": 0,
    "parent_station": "S0109000082"
   }
  },
  {
   "type": "Feature",
   "geometry": {
    "type": "Point",
    "coordinates": [
     141.081372208434,
     42.395118526836704
    ]
   },
   "properties": {
    "stop_id": "S0109000083",
    "stop_name": "若山町一丁目",
    "stop_lat": 42.395118526836704,
    "stop_lon": 141.081372208434,
    "zone_id": "0",
    "location_type": 1,
    "parent_station": NaN
   }
  },
  {
   "type": "Feature",
   "geometry": {
    "type": "Point",
    "coordinates": [
     141.081372208434,
     42.395118526836704
    ]
   },
   "properties": {
    "stop_id": "S010900008300000",
    "stop_name": "若山町一丁目",
    "stop_lat": 42.395118526836704,
    "stop_lon": 141.081372208434,
    "zone_id": "Z001130",
    "location_type": 0,
    "parent_station": "S0109000083"
   }
  },
  {
   "type": "Feature",
   "geometry": {
    "type": "Point",
    "coordinates": [
     141.08835035713003,
     42.4046401997265
    ]
   },
   "properties": {
    "stop_id": "S0109000084",
    "stop_name": "桜木団地",
    "stop_lat": 42.4046401997265,
    "stop_lon": 141.08835035713003,
    "zone_id": "0",
    "location_type": 1,
    "parent_station": NaN
   }
  },
  {
   "type": "Feature",
   "geometry": {
    "type": "Point",
    "coordinates": [
     141.08835035713003,
     42.4046401997265
    ]
   },
   "properties": {
    "stop_id": "S010900008400000",
    "stop_name": "桜木団地",
    "stop_lat": 42.4046401997265,
    "stop_lon": 141.08835035713003,
    "zone_id": "Z001140",
    "location_type": 0,
    "parent_station": "S0109000084"
   }
  },
  {
   "type": "Feature",
   "geometry": {
    "type": "Point",
    "coordinates": [
     141.091683454415,
     42.4037549359685
    ]
   },
   "properties": {
    "stop_id": "S0109000085",
    "stop_name": "桜木中央",
    "stop_lat": 42.4037549359685,
    "stop_lon": 141.091683454415,
    "zone_id": "0",
    "location_type": 1,
    "parent_station": NaN
   }
  },
  {
   "type": "Feature",
   "geometry": {
    "type": "Point",
    "coordinates": [
     141.091683454415,
     42.4037549359685
    ]
   },
   "properties": {
    "stop_id": "S010900008500000",
    "stop_name": "桜木中央",
    "stop_lat": 42.4037549359685,
    "stop_lon": 141.091683454415,
    "zone_id": "Z001150",
    "location_type": 0,
    "parent_station": "S0109000085"
   }
  },
  {
   "type": "Feature",
   "geometry": {
    "type": "Point",
    "coordinates": [
     141.09418332633498,
     42.402027733821704
    ]
   },
   "properties": {
    "stop_id": "S0109000086",
    "stop_name": "緑町二丁目［登別市］",
    "stop_lat": 42.402027733821704,
    "stop_lon": 141.09418332633498,
    "zone_id": "0",
    "location_type": 1,
    "parent_station": NaN
   }
  },
  {
   "type": "Feature",
   "geometry": {
    "type": "Point",
    "coordinates": [
     141.09418332633498,
     42.402027733821704
    ]
   },
   "properties": {
    "stop_id": "S010900008600000",
    "stop_name": "緑町二丁目［登別市］",
    "stop_lat": 42.402027733821704,
    "stop_lon": 141.09418332633498,
    "zone_id": "Z004350",
    "location_type": 0,
    "parent_station": "S0109000086"
   }
  },
  {
   "type": "Feature",
   "geometry": {
    "type": "Point",
    "coordinates": [
     141.097099658478,
     42.4040327786346
    ]
   },
   "properties": {
    "stop_id": "S0109000087",
    "stop_name": "桜木町一丁目",
    "stop_lat": 42.4040327786346,
    "stop_lon": 141.097099658478,
    "zone_id": "0",
    "location_type": 1,
    "parent_station": NaN
   }
  },
  {
   "type": "Feature",
   "geometry": {
    "type": "Point",
    "coordinates": [
     141.097099658478,
     42.4040327786346
    ]
   },
   "properties": {
    "stop_id": "S010900008700000",
    "stop_name": "桜木町一丁目",
    "stop_lat": 42.4040327786346,
    "stop_lon": 141.097099658478,
    "zone_id": "Z001160",
    "location_type": 0,
    "parent_station": "S0109000087"
   }
  },
  {
   "type": "Feature",
   "geometry": {
    "type": "Point",
    "coordinates": [
     141.099911812622,
     42.4064718029869
    ]
   },
   "properties": {
    "stop_id": "S0109000088",
    "stop_name": "新川町一丁目",
    "stop_lat": 42.4064718029869,
    "stop_lon": 141.099911812622,
    "zone_id": "0",
    "location_type": 1,
    "parent_station": NaN
   }
  },
  {
   "type": "Feature",
   "geometry": {
    "type": "Point",
    "coordinates": [
     141.099911812622,
     42.4064718029869
    ]
   },
   "properties": {
    "stop_id": "S010900008800000",
    "stop_name": "新川町一丁目",
    "stop_lat": 42.4064718029869,
    "stop_lon": 141.099911812622,
    "zone_id": "Z001170",
    "location_type": 0,
    "parent_station": "S0109000088"
   }
  },
  {
   "type": "Feature",
   "geometry": {
    "type": "Point",
    "coordinates": [
     141.10307115096202,
     42.409110464828
    ]
   },
   "properties": {
    "stop_id": "S0109000089",
    "stop_name": "幌別中央",
    "stop_lat": 42.409110464828,
    "stop_lon": 141.10307115096202,
    "zone_id": "0",
    "location_type": 1,
    "parent_station": NaN
   }
  },
  {
   "type": "Feature",
   "geometry": {
    "type": "Point",
    "coordinates": [
     141.10307115096202,
     42.409110464828
    ]
   },
   "properties": {
    "stop_id": "S010900008900000",
    "stop_name": "幌別中央",
    "stop_lat": 42.409110464828,
    "stop_lon": 141.10307115096202,
    "zone_id": "Z001180",
    "location_type": 0,
    "parent_station": "S0109000089"
   }
  },
  {
   "type": "Feature",
   "geometry": {
    "type": "Point",
    "coordinates": [
     141.10616115413,
     42.4095011020193
    ]
   },
   "properties": {
    "stop_id": "S0109000090",
    "stop_name": "幌別駅西口",
    "stop_lat": 42.4095011020193,
    "stop_lon": 141.10616115413,
    "zone_id": "0",
    "location_type": 1,
    "parent_station": NaN
   }
  },
  {
   "type": "Feature",
   "geometry": {
    "type": "Point",
    "coordinates": [
     141.10616115413,
     42.4095011020193
    ]
   },
   "properties": {
    "stop_id": "S010900009000000",
    "stop_name": "幌別駅西口",
    "stop_lat": 42.4095011020193,
    "stop_lon": 141.10616115413,
    "zone_id": "Z001190",
    "location_type": 0,
    "parent_station": "S0109000090"
   }
  },
  {
   "type": "Feature",
   "geometry": {
    "type": "Point",
    "coordinates": [
     141.10456396343798,
     42.4116970197995
    ]
   },
   "properties": {
    "stop_id": "S0109000091",
    "stop_name": "中央町五丁目",
    "stop_lat": 42.4116970197995,
    "stop_lon": 141.10456396343798,
    "zone_id": "0",
    "location_type": 1,
    "parent_station": NaN
   }
  },
  {
   "type": "Feature",
   "geometry": {
    "type": "Point",
    "coordinates": [
     141.10456396343798,
     42.4116970197995
    ]
   },
   "properties": {
    "stop_id": "S010900009100000",
    "stop_name": "中央町五丁目",
    "stop_lat": 42.4116970197995,
    "stop_lon": 141.10456396343798,
    "zone_id": "Z000870",
    "location_type": 0,
    "parent_station": "S0109000091"
   }
  },
  {
   "type": "Feature",
   "geometry": {
    "type": "Point",
    "coordinates": [
     141.101230917305,
     42.4114712912797
    ]
   },
   "properties": {
    "stop_id": "S0109000092",
    "stop_name": "社宅十字街",
    "stop_lat": 42.4114712912797,
    "stop_lon": 141.101230917305,
    "zone_id": "0",
    "location_type": 1,
    "parent_station": NaN
   }
  },
  {
   "type": "Feature",
   "geometry": {
    "type": "Point",
    "coordinates": [
     141.101230917305,
     42.4114712912797
    ]
   },
   "properties": {
    "stop_id": "S010900009200000",
    "stop_name": "社宅十字街",
    "stop_lat": 42.4114712912797,
    "stop_lon": 141.101230917305,
    "zone_id": "Z000860",
    "location_type": 0,
    "parent_station": "S0109000092"
   }
  },
  {
   "type": "Feature",
   "geometry": {
    "type": "Point",
    "coordinates": [
     141.09591878293998,
     42.413111648037294
    ]
   },
   "properties": {
    "stop_id": "S0109000093",
    "stop_name": "幌別ホームストアー前",
    "stop_lat": 42.413111648037294,
    "stop_lon": 141.09591878293998,
    "zone_id": "0",
    "location_type": 1,
    "parent_station": NaN
   }
  },
  {
   "type": "Feature",
   "geometry": {
    "type": "Point",
    "coordinates": [
     141.09591878293998,
     42.413111648037294
    ]
   },
   "properties": {
    "stop_id": "S010900009300000",
    "stop_name": "幌別ホームストアー前",
    "stop_lat": 42.413111648037294,
    "stop_lon": 141.09591878293998,
    "zone_id": "Z000850",
    "location_type": 0,
    "parent_station": "S0109000093"
   }
  },
  {
   "type": "Feature",
   "geometry": {
    "type": "Point",
    "coordinates": [
     141.093766153163,
     42.413779941733296
    ]
   },
   "properties": {
    "stop_id": "S0109000094",
    "stop_name": "市民会館前［登別市］",
    "stop_lat": 42.413779941733296,
    "stop_lon": 141.093766153163,
    "zone_id": "0",
    "location_type": 1,
    "parent_station": NaN
   }
  },
  {
   "type": "Feature",
   "geometry": {
    "type": "Point",
    "coordinates": [
     141.093766153163,
     42.413779941733296
    ]
   },
   "properties": {
    "stop_id": "S010900009400000",
    "stop_name": "市民会館前［登別市］",
    "stop_lat": 42.413779941733296,
    "stop_lon": 141.093766153163,
    "zone_id": "Z000840",
    "location_type": 0,
    "parent_station": "S0109000094"
   }
  },
  {
   "type": "Feature",
   "geometry": {
    "type": "Point",
    "coordinates": [
     141.089426127115,
     42.416140724525
    ]
   },
   "properties": {
    "stop_id": "S0109000095",
    "stop_name": "西小学校前［登別市］",
    "stop_lat": 42.416140724525,
    "stop_lon": 141.089426127115,
    "zone_id": "0",
    "location_type": 1,
    "parent_station": NaN
   }
  },
  {
   "type": "Feature",
   "geometry": {
    "type": "Point",
    "coordinates": [
     141.089426127115,
     42.416140724525
    ]
   },
   "properties": {
    "stop_id": "S010900009500000",
    "stop_name": "西小学校前［登別市］",
    "stop_lat": 42.416140724525,
    "stop_lon": 141.089426127115,
    "zone_id": "Z000830",
    "location_type": 0,
    "parent_station": "S0109000095"
   }
  },
  {
   "type": "Feature",
   "geometry": {
    "type": "Point",
    "coordinates": [
     141.087412327537,
     42.4178332166526
    ]
   },
   "properties": {
    "stop_id": "S0109000096",
    "stop_name": "明日中等前",
    "stop_lat": 42.4178332166526,
    "stop_lon": 141.087412327537,
    "zone_id": "0",
    "location_type": 1,
    "parent_station": NaN
   }
  },
  {
   "type": "Feature",
   "geometry": {
    "type": "Point",
    "coordinates": [
     141.087412327537,
     42.4178332166526
    ]
   },
   "properties": {
    "stop_id": "S010900009600000",
    "stop_name": "明日中等前",
    "stop_lat": 42.4178332166526,
    "stop_lon": 141.087412327537,
    "zone_id": "Z000820",
    "location_type": 0,
    "parent_station": "S0109000096"
   }
  },
  {
   "type": "Feature",
   "geometry": {
    "type": "Point",
    "coordinates": [
     141.085606852782,
     42.4193347606209
    ]
   },
   "properties": {
    "stop_id": "S0109000097",
    "stop_name": "しんた２１前",
    "stop_lat": 42.4193347606209,
    "stop_lon": 141.085606852782,
    "zone_id": "0",
    "location_type": 1,
    "parent_station": NaN
   }
  },
  {
   "type": "Feature",
   "geometry": {
    "type": "Point",
    "coordinates": [
     141.085606852782,
     42.4193347606209
    ]
   },
   "properties": {
    "stop_id": "S010900009700000",
    "stop_name": "しんた２１前",
    "stop_lat": 42.4193347606209,
    "stop_lon": 141.085606852782,
    "zone_id": "Z000810",
    "location_type": 0,
    "parent_station": "S0109000097"
   }
  },
  {
   "type": "Feature",
   "geometry": {
    "type": "Point",
    "coordinates": [
     141.08182237052299,
     42.4209491051781
    ]
   },
   "properties": {
    "stop_id": "S0109000098",
    "stop_name": "資料館前［登別市］",
    "stop_lat": 42.4209491051781,
    "stop_lon": 141.08182237052299,
    "zone_id": "0",
    "location_type": 1,
    "parent_station": NaN
   }
  },
  {
   "type": "Feature",
   "geometry": {
    "type": "Point",
    "coordinates": [
     141.08182237052299,
     42.4209491051781
    ]
   },
   "properties": {
    "stop_id": "S010900009800000",
    "stop_name": "資料館前［登別市］",
    "stop_lat": 42.4209491051781,
    "stop_lon": 141.08182237052299,
    "zone_id": "Z000800",
    "location_type": 0,
    "parent_station": "S0109000098"
   }
  },
  {
   "type": "Feature",
   "geometry": {
    "type": "Point",
    "coordinates": [
     141.00054962246202,
     42.307487599253705
    ]
   },
   "properties": {
    "stop_id": "S0109000099",
    "stop_name": "地球岬団地",
    "stop_lat": 42.307487599253705,
    "stop_lon": 141.00054962246202,
    "zone_id": "0",
    "location_type": 1,
    "parent_station": NaN
   }
  },
  {
   "type": "Feature",
   "geometry": {
    "type": "Point",
    "coordinates": [
     141.00054962246202,
     42.307487599253705
    ]
   },
   "properties": {
    "stop_id": "S010900009900000",
    "stop_name": "地球岬団地",
    "stop_lat": 42.307487599253705,
    "stop_lon": 141.00054962246202,
    "zone_id": "Z001680",
    "location_type": 0,
    "parent_station": "S0109000099"
   }
  },
  {
   "type": "Feature",
   "geometry": {
    "type": "Point",
    "coordinates": [
     140.99836222618998,
     42.309180088349294
    ]
   },
   "properties": {
    "stop_id": "S0109000100",
    "stop_name": "南町四丁目",
    "stop_lat": 42.309180088349294,
    "stop_lon": 140.99836222618998,
    "zone_id": "0",
    "location_type": 1,
    "parent_station": NaN
   }
  },
  {
   "type": "Feature",
   "geometry": {
    "type": "Point",
    "coordinates": [
     140.99836222618998,
     42.309180088349294
    ]
   },
   "properties": {
    "stop_id": "S010900010000000",
    "stop_name": "南町四丁目",
    "stop_lat": 42.309180088349294,
    "stop_lon": 140.99836222618998,
    "zone_id": "Z001690",
    "location_type": 0,
    "parent_station": "S0109000100"
   }
  },
  {
   "type": "Feature",
   "geometry": {
    "type": "Point",
    "coordinates": [
     140.99648732314898,
     42.3104559607984
    ]
   },
   "properties": {
    "stop_id": "S0109000101",
    "stop_name": "宮前",
    "stop_lat": 42.3104559607984,
    "stop_lon": 140.99648732314898,
    "zone_id": "0",
    "location_type": 1,
    "parent_station": NaN
   }
  },
  {
   "type": "Feature",
   "geometry": {
    "type": "Point",
    "coordinates": [
     140.99648732314898,
     42.3104559607984
    ]
   },
   "properties": {
    "stop_id": "S010900010100000",
    "stop_name": "宮前",
    "stop_lat": 42.3104559607984,
    "stop_lon": 140.99648732314898,
    "zone_id": "Z001700",
    "location_type": 0,
    "parent_station": "S0109000101"
   }
  },
  {
   "type": "Feature",
   "geometry": {
    "type": "Point",
    "coordinates": [
     140.993987482001,
     42.311514831653
    ]
   },
   "properties": {
    "stop_id": "S0109000102",
    "stop_name": "南町二丁目",
    "stop_lat": 42.311514831653,
    "stop_lon": 140.993987482001,
    "zone_id": "0",
    "location_type": 1,
    "parent_station": NaN
   }
  },
  {
   "type": "Feature",
   "geometry": {
    "type": "Point",
    "coordinates": [
     140.993987482001,
     42.311514831653
    ]
   },
   "properties": {
    "stop_id": "S010900010200000",
    "stop_name": "南町二丁目",
    "stop_lat": 42.311514831653,
    "stop_lon": 140.993987482001,
    "zone_id": "Z001710",
    "location_type": 0,
    "parent_station": "S0109000102"
   }
  },
  {
   "type": "Feature",
   "geometry": {
    "type": "Point",
    "coordinates": [
     140.991487628464,
     42.312842770950105
    ]
   },
   "properties": {
    "stop_id": "S0109000103",
    "stop_name": "交番前［室蘭市］",
    "stop_lat": 42.312842770950105,
    "stop_lon": 140.991487628464,
    "zone_id": "0",
    "location_type": 1,
    "parent_station": NaN
   }
  },
  {
   "type": "Feature",
   "geometry": {
    "type": "Point",
    "coordinates": [
     140.991487628464,
     42.312842770950105
    ]
   },
   "properties": {
    "stop_id": "S010900010300000",
    "stop_name": "交番前［室蘭市］",
    "stop_lat": 42.312842770950105,
    "stop_lon": 140.991487628464,
    "zone_id": "Z001720",
    "location_type": 0,
    "parent_station": "S0109000103"
   }
  },
  {
   "type": "Feature",
   "geometry": {
    "type": "Point",
    "coordinates": [
     140.990584841333,
     42.3146741565169
    ]
   },
   "properties": {
    "stop_id": "S0109000104",
    "stop_name": "北町中央",
    "stop_lat": 42.3146741565169,
    "stop_lon": 140.990584841333,
    "zone_id": "0",
    "location_type": 1,
    "parent_station": NaN
   }
  },
  {
   "type": "Feature",
   "geometry": {
    "type": "Point",
    "coordinates": [
     140.990584841333,
     42.3146741565169
    ]
   },
   "properties": {
    "stop_id": "S010900010400000",
    "stop_name": "北町中央",
    "stop_lat": 42.3146741565169,
    "stop_lon": 140.990584841333,
    "zone_id": "Z001730",
    "location_type": 0,
    "parent_station": "S0109000104"
   }
  },
  {
   "type": "Feature",
   "geometry": {
    "type": "Point",
    "coordinates": [
     140.989890348253,
     42.3169829252163
    ]
   },
   "properties": {
    "stop_id": "S0109000105",
    "stop_name": "母恋駅前",
    "stop_lat": 42.3169829252163,
    "stop_lon": 140.989890348253,
    "zone_id": "0",
    "location_type": 1,
    "parent_station": NaN
   }
  },
  {
   "type": "Feature",
   "geometry": {
    "type": "Point",
    "coordinates": [
     140.989890348253,
     42.3169829252163
    ]
   },
   "properties": {
    "stop_id": "S010900010500000",
    "stop_name": "母恋駅前",
    "stop_lat": 42.3169829252163,
    "stop_lon": 140.989890348253,
    "zone_id": "Z000070",
    "location_type": 0,
    "parent_station": "S0109000105"
   }
  },
  {
   "type": "Feature",
   "geometry": {
    "type": "Point",
    "coordinates": [
     140.989890348253,
     42.3169829252163
    ]
   },
   "properties": {
    "stop_id": "S010900010500001",
    "stop_name": "母恋駅前",
    "stop_lat": 42.3169829252163,
    "stop_lon": 140.989890348253,
    "zone_id": "Z000071",
    "location_type": 0,
    "parent_station": "S0109000105"
   }
  },
  {
   "type": "Feature",
   "geometry": {
    "type": "Point",
    "coordinates": [
     140.983988064657,
     42.316896025858604
    ]
   },
   "properties": {
    "stop_id": "S0109000106",
    "stop_name": "日鋼記念病院前",
    "stop_lat": 42.316896025858604,
    "stop_lon": 140.983988064657,
    "zone_id": "0",
    "location_type": 1,
    "parent_station": NaN
   }
  },
  {
   "type": "Feature",
   "geometry": {
    "type": "Point",
    "coordinates": [
     140.983988064657,
     42.316896025858604
    ]
   },
   "properties": {
    "stop_id": "S010900010600000",
    "stop_name": "日鋼記念病院前",
    "stop_lat": 42.316896025858604,
    "stop_lon": 140.983988064657,
    "zone_id": "Z000060",
    "location_type": 0,
    "parent_station": "S0109000106"
   }
  },
  {
   "type": "Feature",
   "geometry": {
    "type": "Point",
    "coordinates": [
     140.983988064657,
     42.316896025858604
    ]
   },
   "properties": {
    "stop_id": "S010900010600001",
    "stop_name": "日鋼記念病院前",
    "stop_lat": 42.316896025858604,
    "stop_lon": 140.983988064657,
    "zone_id": "Z000061",
    "location_type": 0,
    "parent_station": "S0109000106"
   }
  },
  {
   "type": "Feature",
   "geometry": {
    "type": "Point",
    "coordinates": [
     140.979856473332,
     42.3166789630191
    ]
   },
   "properties": {
    "stop_id": "S0109000107",
    "stop_name": "ＮＨＫ前［室蘭市］",
    "stop_lat": 42.3166789630191,
    "stop_lon": 140.979856473332,
    "zone_id": "0",
    "location_type": 1,
    "parent_station": NaN
   }
  },
  {
   "type": "Feature",
   "geometry": {
    "type": "Point",
    "coordinates": [
     140.979856473332,
     42.3166789630191
    ]
   },
   "properties": {
    "stop_id": "S010900010700000",
    "stop_name": "ＮＨＫ前［室蘭市］",
    "stop_lat": 42.3166789630191,
    "stop_lon": 140.979856473332,
    "zone_id": "Z000050",
    "location_type": 0,
    "parent_station": "S0109000107"
   }
  },
  {
   "type": "Feature",
   "geometry": {
    "type": "Point",
    "coordinates": [
     140.979856473332,
     42.3166789630191
    ]
   },
   "properties": {
    "stop_id": "S010900010700001",
    "stop_name": "ＮＨＫ前［室蘭市］",
    "stop_lat": 42.3166789630191,
    "stop_lon": 140.979856473332,
    "zone_id": "Z000051",
    "location_type": 0,
    "parent_station": "S0109000107"
   }
  },
  {
   "type": "Feature",
   "geometry": {
    "type": "Point",
    "coordinates": [
     140.975586113753,
     42.3140923595365
    ]
   },
   "properties": {
    "stop_id": "S0109000108",
    "stop_name": "市立病院前［室蘭市］",
    "stop_lat": 42.3140923595365,
    "stop_lon": 140.975586113753,
    "zone_id": "0",
    "location_type": 1,
    "parent_station": NaN
   }
  },
  {
   "type": "Feature",
   "geometry": {
    "type": "Point",
    "coordinates": [
     140.975586113753,
     42.3140923595365
    ]
   },
   "properties": {
    "stop_id": "S010900010800000",
    "stop_name": "市立病院前［室蘭市］",
    "stop_lat": 42.3140923595365,
    "stop_lon": 140.975586113753,
    "zone_id": "Z001060",
    "location_type": 0,
    "parent_station": "S0109000108"
   }
  },
  {
   "type": "Feature",
   "geometry": {
    "type": "Point",
    "coordinates": [
     140.975586113753,
     42.3140923595365
    ]
   },
   "properties": {
    "stop_id": "S010900010800001",
    "stop_name": "市立病院前［室蘭市］",
    "stop_lat": 42.3140923595365,
    "stop_lon": 140.975586113753,
    "zone_id": "Z001061",
    "location_type": 0,
    "parent_station": "S0109000108"
   }
  },
  {
   "type": "Feature",
   "geometry": {
    "type": "Point",
    "coordinates": [
     140.974822221561,
     42.315541843933296
    ]
   },
   "properties": {
    "stop_id": "S0109000109",
    "stop_name": "市役所前［室蘭市］",
    "stop_lat": 42.315541843933296,
    "stop_lon": 140.974822221561,
    "zone_id": "0",
    "location_type": 1,
    "parent_station": NaN
   }
  },
  {
   "type": "Feature",
   "geometry": {
    "type": "Point",
    "coordinates": [
     140.974822221561,
     42.315541843933296
    ]
   },
   "properties": {
    "stop_id": "S010900010900000",
    "stop_name": "市役所前［室蘭市］",
    "stop_lat": 42.315541843933296,
    "stop_lon": 140.974822221561,
    "zone_id": "Z000040",
    "location_type": 0,
    "parent_station": "S0109000109"
   }
  },
  {
   "type": "Feature",
   "geometry": {
    "type": "Point",
    "coordinates": [
     140.974822221561,
     42.315541843933296
    ]
   },
   "properties": {
    "stop_id": "S010900010900001",
    "stop_name": "市役所前［室蘭市］",
    "stop_lat": 42.315541843933296,
    "stop_lon": 140.974822221561,
    "zone_id": "Z000041",
    "location_type": 0,
    "parent_station": "S0109000109"
   }
  },
  {
   "type": "Feature",
   "geometry": {
    "type": "Point",
    "coordinates": [
     140.973433422433,
     42.316097315816705
    ]
   },
   "properties": {
    "stop_id": "S0109000110",
    "stop_name": "市役所北［室蘭市］",
    "stop_lat": 42.316097315816705,
    "stop_lon": 140.973433422433,
    "zone_id": "0",
    "location_type": 1,
    "parent_station": NaN
   }
  },
  {
   "type": "Feature",
   "geometry": {
    "type": "Point",
    "coordinates": [
     140.973433422433,
     42.316097315816705
    ]
   },
   "properties": {
    "stop_id": "S010900011000000",
    "stop_name": "市役所北［室蘭市］",
    "stop_lat": 42.316097315816705,
    "stop_lon": 140.973433422433,
    "zone_id": "Z001990",
    "location_type": 0,
    "parent_station": "S0109000110"
   }
  },
  {
   "type": "Feature",
   "geometry": {
    "type": "Point",
    "coordinates": [
     140.971454388151,
     42.3167916514261
    ]
   },
   "properties": {
    "stop_id": "S0109000111",
    "stop_name": "小公園前",
    "stop_lat": 42.3167916514261,
    "stop_lon": 140.971454388151,
    "zone_id": "0",
    "location_type": 1,
    "parent_station": NaN
   }
  },
  {
   "type": "Feature",
   "geometry": {
    "type": "Point",
    "coordinates": [
     140.971454388151,
     42.3167916514261
    ]
   },
   "properties": {
    "stop_id": "S010900011100000",
    "stop_name": "小公園前",
    "stop_lat": 42.3167916514261,
    "stop_lon": 140.971454388151,
    "zone_id": "Z000030",
    "location_type": 0,
    "parent_station": "S0109000111"
   }
  },
  {
   "type": "Feature",
   "geometry": {
    "type": "Point",
    "coordinates": [
     140.970794624802,
     42.3188747504256
    ]
   },
   "properties": {
    "stop_id": "S0109000112",
    "stop_name": "中央町",
    "stop_lat": 42.3188747504256,
    "stop_lon": 140.970794624802,
    "zone_id": "0",
    "location_type": 1,
    "parent_station": NaN
   }
  },
  {
   "type": "Feature",
   "geometry": {
    "type": "Point",
    "coordinates": [
     140.970794624802,
     42.3188747504256
    ]
   },
   "properties": {
    "stop_id": "S010900011200000",
    "stop_name": "中央町",
    "stop_lat": 42.3188747504256,
    "stop_lon": 140.970794624802,
    "zone_id": "Z000020",
    "location_type": 0,
    "parent_station": "S0109000112"
   }
  },
  {
   "type": "Feature",
   "geometry": {
    "type": "Point",
    "coordinates": [
     140.970794624802,
     42.3188747504256
    ]
   },
   "properties": {
    "stop_id": "S010900011200001",
    "stop_name": "中央町",
    "stop_lat": 42.3188747504256,
    "stop_lon": 140.970794624802,
    "zone_id": "Z000021",
    "location_type": 0,
    "parent_station": "S0109000112"
   }
  },
  {
   "type": "Feature",
   "geometry": {
    "type": "Point",
    "coordinates": [
     140.97364167092698,
     42.317564176446794
    ]
   },
   "properties": {
    "stop_id": "S0109000113",
    "stop_name": "室蘭駅前",
    "stop_lat": 42.317564176446794,
    "stop_lon": 140.97364167092698,
    "zone_id": "0",
    "location_type": 1,
    "parent_station": NaN
   }
  },
  {
   "type": "Feature",
   "geometry": {
    "type": "Point",
    "coordinates": [
     140.97364167092698,
     42.317564176446794
    ]
   },
   "properties": {
    "stop_id": "S010900011300000",
    "stop_name": "室蘭駅前",
    "stop_lat": 42.317564176446794,
    "stop_lon": 140.97364167092698,
    "zone_id": "Z000010",
    "location_type": 0,
    "parent_station": "S0109000113"
   }
  },
  {
   "type": "Feature",
   "geometry": {
    "type": "Point",
    "coordinates": [
     140.970204264562,
     42.3217303374559
    ]
   },
   "properties": {
    "stop_id": "S0109000114",
    "stop_name": "室蘭観光協会前",
    "stop_lat": 42.3217303374559,
    "stop_lon": 140.970204264562,
    "zone_id": "0",
    "location_type": 1,
    "parent_station": NaN
   }
  },
  {
   "type": "Feature",
   "geometry": {
    "type": "Point",
    "coordinates": [
     140.970204264562,
     42.3217303374559
    ]
   },
   "properties": {
    "stop_id": "S010900011400000",
    "stop_name": "室蘭観光協会前",
    "stop_lat": 42.3217303374559,
    "stop_lon": 140.970204264562,
    "zone_id": "Z003240",
    "location_type": 0,
    "parent_station": "S0109000114"
   }
  },
  {
   "type": "Feature",
   "geometry": {
    "type": "Point",
    "coordinates": [
     140.968537560861,
     42.325540664677
    ]
   },
   "properties": {
    "stop_id": "S0109000115",
    "stop_name": "中央埠頭入口",
    "stop_lat": 42.325540664677,
    "stop_lon": 140.968537560861,
    "zone_id": "0",
    "location_type": 1,
    "parent_station": NaN
   }
  },