{
 "type": "FeatureCollection",
 "name": "GTFS stops",
 "features": [
  {
   "type": "Feature",
   "geometry": {
    "type": "Point",
    "coordinates": [
     143.92311887385202,
     43.827167769411794
    ]
   },
   "properties": {
    "stop_id": "S0129000001",
    "stop_name": "小泉８号",
    "stop_lat": 43.827167769411794,
    "stop_lon": 143.92311887385202,
    "zone_id": "0",
    "location_type": 1,
    "parent_station": NaN
   }
  },
  {
   "type": "Feature",
   "geometry": {
    "type": "Point",
    "coordinates": [
     143.92311887385202,
     43.827167769411794
    ]
   },
   "properties": {
    "stop_id": "S012900000100000",
    "stop_name": "小泉８号",
    "stop_lat": 43.827167769411794,
    "stop_lon": 143.92311887385202,
    "zone_id": "Z002430",
    "location_type": 0,
    "parent_station": "S0129000001"
   }
  },
  {
   "type": "Feature",
   "geometry": {
    "type": "Point",
    "coordinates": [
     143.92311887385202,
     43.827167769411794
    ]
   },
   "properties": {
    "stop_id": "S012900000100001",
    "stop_name": "小泉８号",
    "stop_lat": 43.827167769411794,
    "stop_lon": 143.92311887385202,
    "zone_id": "Z002431",
    "location_type": 0,
    "parent_station": "S0129000001"
   }
  },
  {
   "type": "Feature",
   "geometry": {
    "type": "Point",
    "coordinates": [
     143.92610463947702,
     43.8292856505908
    ]
   },
   "properties": {
    "stop_id": "S0129000002",
    "stop_name": "ひかり野２丁目",
    "stop_lat": 43.8292856505908,
    "stop_lon": 143.92610463947702,
    "zone_id": "0",
    "location_type": 1,
    "parent_station": NaN
   }
  },
  {
   "type": "Feature",
   "geometry": {
    "type": "Point",
    "coordinates": [
     143.92610463947702,
     43.8292856505908
    ]
   },
   "properties": {
    "stop_id": "S012900000200000",
    "stop_name": "ひかり野２丁目",
    "stop_lat": 43.8292856505908,
    "stop_lon": 143.92610463947702,
    "zone_id": "Z000160",
    "location_type": 0,
    "parent_station": "S0129000002"
   }
  },
  {
   "type": "Feature",
   "geometry": {
    "type": "Point",
    "coordinates": [
     143.92610463947702,
     43.8292856505908
    ]
   },
   "properties": {
    "stop_id": "S012900000200001",
    "stop_name": "ひかり野２丁目",
    "stop_lat": 43.8292856505908,
    "stop_lon": 143.92610463947702,
    "zone_id": "Z000161",
    "location_type": 0,
    "parent_station": "S0129000002"
   }
  },
  {
   "type": "Feature",
   "geometry": {
    "type": "Point",
    "coordinates": [
     143.929611261123,
     43.8299714023825
    ]
   },
   "properties": {
    "stop_id": "S0129000003",
    "stop_name": "ひかり野９号線",
    "stop_lat": 43.8299714023825,
    "stop_lon": 143.929611261123,
    "zone_id": "0",
    "location_type": 1,
    "parent_station": NaN
   }
  },
  {
   "type": "Feature",
   "geometry": {
    "type": "Point",
    "coordinates": [
     143.929611261123,
     43.8299714023825
    ]
   },
   "properties": {
    "stop_id": "S012900000300000",
    "stop_name": "ひかり野９号線",
    "stop_lat": 43.8299714023825,
    "stop_lon": 143.929611261123,
    "zone_id": "Z000170",
    "location_type": 0,
    "parent_station": "S0129000003"
   }
  },
  {
   "type": "Feature",
   "geometry": {
    "type": "Point",
    "coordinates": [
     143.929611261123,
     43.8299714023825
    ]
   },
   "properties": {
    "stop_id": "S012900000300001",
    "stop_name": "ひかり野９号線",
    "stop_lat": 43.8299714023825,
    "stop_lon": 143.929611261123,
    "zone_id": "Z000171",
    "location_type": 0,
    "parent_station": "S0129000003"
   }
  },
  {
   "type": "Feature",
   "geometry": {
    "type": "Point",
    "coordinates": [
     143.92943775155,
     43.828079240627495
    ]
   },
   "properties": {
    "stop_id": "S0129000004",
    "stop_name": "のつけ乃湯",
    "stop_lat": 43.828079240627495,
    "stop_lon": 143.92943775155,
    "zone_id": "0",
    "location_type": 1,
    "parent_station": NaN
   }
  },
  {
   "type": "Feature",
   "geometry": {
    "type": "Point",
    "coordinates": [
     143.92943775155,
     43.828079240627495
    ]
   },
   "properties": {
    "stop_id": "S012900000400000",
    "stop_name": "のつけ乃湯",
    "stop_lat": 43.828079240627495,
    "stop_lon": 143.92943775155,
    "zone_id": "Z000140",
    "location_type": 0,
    "parent_station": "S0129000004"
   }
  },
  {
   "type": "Feature",
   "geometry": {
    "type": "Point",
    "coordinates": [
     143.92943775155,
     43.828079240627495
    ]
   },
   "properties": {
    "stop_id": "S012900000400001",
    "stop_name": "のつけ乃湯",
    "stop_lat": 43.828079240627495,
    "stop_lon": 143.92943775155,
    "zone_id": "Z000141",
    "location_type": 0,
    "parent_station": "S0129000004"
   }
  },
  {
   "type": "Feature",
   "geometry": {
    "type": "Point",
    "coordinates": [
     143.926139570222,
     43.824694128424206
    ]
   },
   "properties": {
    "stop_id": "S0129000005",
    "stop_name": "春光町４丁目",
    "stop_lat": 43.824694128424206,
    "stop_lon": 143.926139570222,
    "zone_id": "0",
    "location_type": 1,
    "parent_station": NaN
   }
  },
  {
   "type": "Feature",
   "geometry": {
    "type": "Point",
    "coordinates": [
     143.926139570222,
     43.824694128424206
    ]
   },
   "properties": {
    "stop_id": "S012900000500000",
    "stop_name": "春光町４丁目",
    "stop_lat": 43.824694128424206,
    "stop_lon": 143.926139570222,
    "zone_id": "Z002920",
    "location_type": 0,
    "parent_station": "S0129000005"
   }
  },
  {
   "type": "Feature",
   "geometry": {
    "type": "Point",
    "coordinates": [
     143.926139570222,
     43.824694128424206
    ]
   },
   "properties": {
    "stop_id": "S012900000500001",
    "stop_name": "春光町４丁目",
    "stop_lat": 43.824694128424206,
    "stop_lon": 143.926139570222,
    "zone_id": "Z002921",
    "location_type": 0,
    "parent_station": "S0129000005"
   }
  },
  {
   "type": "Feature",
   "geometry": {
    "type": "Point",
    "coordinates": [
     143.922355313757,
     43.821404483630296
    ]
   },
   "properties": {
    "stop_id": "S0129000006",
    "stop_name": "小泉小学校",
    "stop_lat": 43.821404483630296,
    "stop_lon": 143.922355313757,
    "zone_id": "0",
    "location_type": 1,
    "parent_station": NaN
   }
  },
  {
   "type": "Feature",
   "geometry": {
    "type": "Point",
    "coordinates": [
     143.922355313757,
     43.821404483630296
    ]
   },
   "properties": {
    "stop_id": "S012900000600000",
    "stop_name": "小泉小学校",
    "stop_lat": 43.821404483630296,
    "stop_lon": 143.922355313757,
    "zone_id": "Z002410",
    "location_type": 0,
    "parent_station": "S0129000006"
   }
  },
  {
   "type": "Feature",
   "geometry": {
    "type": "Point",
    "coordinates": [
     143.922355313757,
     43.821404483630296
    ]
   },
   "properties": {
    "stop_id": "S012900000600001",
    "stop_name": "小泉小学校",
    "stop_lat": 43.821404483630296,
    "stop_lon": 143.922355313757,
    "zone_id": "Z002411",
    "location_type": 0,
    "parent_station": "S0129000006"
   }
  },
  {
   "type": "Feature",
   "geometry": {
    "type": "Point",
    "coordinates": [
     143.91971673792298,
     43.8193647251598
    ]
   },
   "properties": {
    "stop_id": "S0129000007",
    "stop_name": "春光町５丁目",
    "stop_lat": 43.8193647251598,
    "stop_lon": 143.91971673792298,
    "zone_id": "0",
    "location_type": 1,
    "parent_station": NaN
   }
  },
  {
   "type": "Feature",
   "geometry": {
    "type": "Point",
    "coordinates": [
     143.91971673792298,
     43.8193647251598
    ]
   },
   "properties": {
    "stop_id": "S012900000700000",
    "stop_name": "春光町５丁目",
    "stop_lat": 43.8193647251598,
    "stop_lon": 143.91971673792298,
    "zone_id": "Z002930",
    "location_type": 0,
    "parent_station": "S0129000007"
   }
  },
  {
   "type": "Feature",
   "geometry": {
    "type": "Point",
    "coordinates": [
     143.91971673792298,
     43.8193647251598
    ]
   },
   "properties": {
    "stop_id": "S012900000700001",
    "stop_name": "春光町５丁目",
    "stop_lat": 43.8193647251598,
    "stop_lon": 143.91971673792298,
    "zone_id": "Z002931",
    "location_type": 0,
    "parent_station": "S0129000007"
   }
  },
  {
   "type": "Feature",
   "geometry": {
    "type": "Point",
    "coordinates": [
     143.91780724262802,
     43.8178804755623
    ]
   },
   "properties": {
    "stop_id": "S0129000008",
    "stop_name": "田端６号線",
    "stop_lat": 43.8178804755623,
    "stop_lon": 143.91780724262802,
    "zone_id": "0",
    "location_type": 1,
    "parent_station": NaN
   }
  },
  {
   "type": "Feature",
   "geometry": {
    "type": "Point",
    "coordinates": [
     143.91780724262802,
     43.8178804755623
    ]
   },
   "properties": {
    "stop_id": "S012900000800000",
    "stop_name": "田端６号線",
    "stop_lat": 43.8178804755623,
    "stop_lon": 143.91780724262802,
    "zone_id": "Z003900",
    "location_type": 0,
    "parent_station": "S0129000008"
   }
  },
  {
   "type": "Feature",
   "geometry": {
    "type": "Point",
    "coordinates": [
     143.91780724262802,
     43.8178804755623
    ]
   },
   "properties": {
    "stop_id": "S012900000800001",
    "stop_name": "田端６号線",
    "stop_lat": 43.8178804755623,
    "stop_lon": 143.91780724262802,
    "zone_id": "Z003901",
    "location_type": 0,
    "parent_station": "S0129000008"
   }
  },
  {
   "type": "Feature",
   "geometry": {
    "type": "Point",
    "coordinates": [
     143.915550588314,
     43.815649771964296
    ]
   },
   "properties": {
    "stop_id": "S0129000009",
    "stop_name": "田端変電所",
    "stop_lat": 43.815649771964296,
    "stop_lon": 143.915550588314,
    "zone_id": "0",
    "location_type": 1,
    "parent_station": NaN
   }
  },
  {
   "type": "Feature",
   "geometry": {
    "type": "Point",
    "coordinates": [
     143.915550588314,
     43.815649771964296
    ]
   },
   "properties": {
    "stop_id": "S012900000900000",
    "stop_name": "田端変電所",
    "stop_lat": 43.815649771964296,
    "stop_lon": 143.915550588314,
    "zone_id": "Z003870",
    "location_type": 0,
    "parent_station": "S0129000009"
   }
  },
  {
   "type": "Feature",
   "geometry": {
    "type": "Point",
    "coordinates": [
     143.915550588314,
     43.815649771964296
    ]
   },
   "properties": {
    "stop_id": "S012900000900001",
    "stop_name": "田端変電所",
    "stop_lat": 43.815649771964296,
    "stop_lon": 143.915550588314,
    "zone_id": "Z003871",
    "location_type": 0,
    "parent_station": "S0129000009"
   }
  },
  {
   "type": "Feature",
   "geometry": {
    "type": "Point",
    "coordinates": [
     143.91409244642,
     43.814122132114
    ]
   },
   "properties": {
    "stop_id": "S0129000010",
    "stop_name": "田端５号線",
    "stop_lat": 43.814122132114,
    "stop_lon": 143.91409244642,
    "zone_id": "0",
    "location_type": 1,
    "parent_station": NaN
   }
  },
  {
   "type": "Feature",
   "geometry": {
    "type": "Point",
    "coordinates": [
     143.91409244642,
     43.814122132114
    ]
   },
   "properties": {
    "stop_id": "S012900001000000",
    "stop_name": "田端５号線",
    "stop_lat": 43.814122132114,
    "stop_lon": 143.91409244642,
    "zone_id": "Z003890",
    "location_type": 0,
    "parent_station": "S0129000010"
   }
  },
  {
   "type": "Feature",
   "geometry": {
    "type": "Point",
    "coordinates": [
     143.91409244642,
     43.814122132114
    ]
   },
   "properties": {
    "stop_id": "S012900001000001",
    "stop_name": "田端５号線",
    "stop_lat": 43.814122132114,
    "stop_lon": 143.91409244642,
    "zone_id": "Z003891",
    "location_type": 0,
    "parent_station": "S0129000010"
   }
  },
  {
   "type": "Feature",
   "geometry": {
    "type": "Point",
    "coordinates": [
     143.91180107716298,
     43.811795952010705
    ]
   },
   "properties": {
    "stop_id": "S0129000011",
    "stop_name": "朝日町中央",
    "stop_lat": 43.811795952010705,
    "stop_lon": 143.91180107716298,
    "zone_id": "0",
    "location_type": 1,
    "parent_station": NaN
   }
  },
  {
   "type": "Feature",
   "geometry": {
    "type": "Point",
    "coordinates": [
     143.91180107716298,
     43.811795952010705
    ]
   },
   "properties": {
    "stop_id": "S012900001100000",
    "stop_name": "朝日町中央",
    "stop_lat": 43.811795952010705,
    "stop_lon": 143.91180107716298,
    "zone_id": "Z003030",
    "location_type": 0,
    "parent_station": "S0129000011"
   }
  },
  {
   "type": "Feature",
   "geometry": {
    "type": "Point",
    "coordinates": [
     143.91180107716298,
     43.811795952010705
    ]
   },
   "properties": {
    "stop_id": "S012900001100001",
    "stop_name": "朝日町中央",
    "stop_lat": 43.811795952010705,
    "stop_lon": 143.91180107716298,
    "zone_id": "Z003031",
    "location_type": 0,
    "parent_station": "S0129000011"
   }
  },
  {
   "type": "Feature",
   "geometry": {
    "type": "Point",
    "coordinates": [
     143.909301405461,
     43.809174660945395
    ]
   },
   "properties": {
    "stop_id": "S0129000012",
    "stop_name": "香りゃんせ公園入口",
    "stop_lat": 43.809174660945395,
    "stop_lon": 143.909301405461,
    "zone_id": "0",
    "location_type": 1,
    "parent_station": NaN
   }
  },
  {
   "type": "Feature",
   "geometry": {
    "type": "Point",
    "coordinates": [
     143.909301405461,
     43.809174660945395
    ]
   },
   "properties": {
    "stop_id": "S012900001200000",
    "stop_name": "香りゃんせ公園入口",
    "stop_lat": 43.809174660945395,
    "stop_lon": 143.909301405461,
    "zone_id": "Z005860",
    "location_type": 0,
    "parent_station": "S0129000012"
   }
  },
  {
   "type": "Feature",
   "geometry": {
    "type": "Point",
    "coordinates": [
     143.909301405461,
     43.809174660945395
    ]
   },
   "properties": {
    "stop_id": "S012900001200001",
    "stop_name": "香りゃんせ公園入口",
    "stop_lat": 43.809174660945395,
    "stop_lon": 143.909301405461,
    "zone_id": "Z005861",
    "location_type": 0,
    "parent_station": "S0129000012"
   }
  },
  {
   "type": "Feature",
   "geometry": {
    "type": "Point",
    "coordinates": [
     143.906107376954,
     43.8059023857144
    ]
   },
   "properties": {
    "stop_id": "S0129000013",
    "stop_name": "アクロス北見",
    "stop_lat": 43.8059023857144,
    "stop_lon": 143.906107376954,
    "zone_id": "0",
    "location_type": 1,
    "parent_station": NaN
   }
  },
  {
   "type": "Feature",
   "geometry": {
    "type": "Point",
    "coordinates": [
     143.906107376954,
     43.8059023857144
    ]
   },
   "properties": {
    "stop_id": "S012900001300000",
    "stop_name": "アクロス北見",
    "stop_lat": 43.8059023857144,
    "stop_lon": 143.906107376954,
    "zone_id": "Z000250",
    "location_type": 0,
    "parent_station": "S0129000013"
   }
  },
  {
   "type": "Feature",
   "geometry": {
    "type": "Point",
    "coordinates": [
     143.906107376954,
     43.8059023857144
    ]
   },
   "properties": {
    "stop_id": "S012900001300001",
    "stop_name": "アクロス北見",
    "stop_lat": 43.8059023857144,
    "stop_lon": 143.906107376954,
    "zone_id": "Z000251",
    "location_type": 0,
    "parent_station": "S0129000013"
   }
  },
  {
   "type": "Feature",
   "geometry": {
    "type": "Point",
    "coordinates": [
     143.904822840947,
     43.804175117471196
    ]
   },
   "properties": {
    "stop_id": "S0129000014",
    "stop_name": "泉第１公園入口",
    "stop_lat": 43.804175117471196,
    "stop_lon": 143.904822840947,
    "zone_id": "0",
    "location_type": 1,
    "parent_station": NaN
   }
  },
  {
   "type": "Feature",
   "geometry": {
    "type": "Point",
    "coordinates": [
     143.904822840947,
     43.804175117471196
    ]
   },
   "properties": {
    "stop_id": "S012900001400000",
    "stop_name": "泉第１公園入口",
    "stop_lat": 43.804175117471196,
    "stop_lon": 143.904822840947,
    "zone_id": "Z003420",
    "location_type": 0,
    "parent_station": "S0129000014"
   }
  },
  {
   "type": "Feature",
   "geometry": {
    "type": "Point",
    "coordinates": [
     143.904822840947,
     43.804175117471196
    ]
   },
   "properties": {
    "stop_id": "S012900001400001",
    "stop_name": "泉第１公園入口",
    "stop_lat": 43.804175117471196,
    "stop_lon": 143.904822840947,
    "zone_id": "Z003421",
    "location_type": 0,
    "parent_station": "S0129000014"
   }
  },
  {
   "type": "Feature",
   "geometry": {
    "type": "Point",
    "coordinates": [
     143.90256623938498,
     43.8007987030868
    ]
   },
   "properties": {
    "stop_id": "S0129000015",
    "stop_name": "南小学校",
    "stop_lat": 43.8007987030868,
    "stop_lon": 143.90256623938498,
    "zone_id": "0",
    "location_type": 1,
    "parent_station": NaN
   }
  },
  {
   "type": "Feature",
   "geometry": {
    "type": "Point",
    "coordinates": [
     143.90256623938498,
     43.8007987030868
    ]
   },
   "properties": {
    "stop_id": "S012900001500000",
    "stop_name": "南小学校",
    "stop_lat": 43.8007987030868,
    "stop_lon": 143.90256623938498,
    "zone_id": "Z001610",
    "location_type": 0,
    "parent_station": "S0129000015"
   }
  },
  {
   "type": "Feature",
   "geometry": {
    "type": "Point",
    "coordinates": [
     143.90256623938498,
     43.8007987030868
    ]
   },
   "properties": {
    "stop_id": "S012900001500001",
    "stop_name": "南小学校",
    "stop_lat": 43.8007987030868,
    "stop_lon": 143.90256623938498,
    "zone_id": "Z001611",
    "location_type": 0,
    "parent_station": "S0129000015"
   }
  },
  {
   "type": "Feature",
   "geometry": {
    "type": "Point",
    "coordinates": [
     143.900587330988,
     43.7987589561376
    ]
   },
   "properties": {
    "stop_id": "S0129000016",
    "stop_name": "南町１丁目",
    "stop_lat": 43.7987589561376,
    "stop_lon": 143.900587330988,
    "zone_id": "0",
    "location_type": 1,
    "parent_station": NaN
   }
  },
  {
   "type": "Feature",
   "geometry": {
    "type": "Point",
    "coordinates": [
     143.900587330988,
     43.7987589561376
    ]
   },
   "properties": {
    "stop_id": "S012900001600000",
    "stop_name": "南町１丁目",
    "stop_lat": 43.7987589561376,
    "stop_lon": 143.900587330988,
    "zone_id": "Z001660",
    "location_type": 0,
    "parent_station": "S0129000016"
   }
  },
  {
   "type": "Feature",
   "geometry": {
    "type": "Point",
    "coordinates": [
     143.900587330988,
     43.7987589561376
    ]
   },
   "properties": {
    "stop_id": "S012900001600001",
    "stop_name": "南町１丁目",
    "stop_lat": 43.7987589561376,
    "stop_lon": 143.900587330988,
    "zone_id": "Z001661",
    "location_type": 0,
    "parent_station": "S0129000016"
   }
  },
  {
   "type": "Feature",
   "geometry": {
    "type": "Point",
    "coordinates": [
     143.897184907721,
     43.7971965638208
    ]
   },
   "properties": {
    "stop_id": "S0129000017",
    "stop_name": "中の島１丁目",
    "stop_lat": 43.7971965638208,
    "stop_lon": 143.897184907721,
    "zone_id": "0",
    "location_type": 1,
    "parent_station": NaN
   }
  },
  {
   "type": "Feature",
   "geometry": {
    "type": "Point",
    "coordinates": [
     143.897184907721,
     43.7971965638208
    ]
   },
   "properties": {
    "stop_id": "S012900001700000",
    "stop_name": "中の島１丁目",
    "stop_lat": 43.7971965638208,
    "stop_lon": 143.897184907721,
    "zone_id": "Z000750",
    "location_type": 0,
    "parent_station": "S0129000017"
   }
  },
  {
   "type": "Feature",
   "geometry": {
    "type": "Point",
    "coordinates": [
     143.89374760326402,
     43.7991494199016
    ]
   },
   "properties": {
    "stop_id": "S0129000018",
    "stop_name": "農協",
    "stop_lat": 43.7991494199016,
    "stop_lon": 143.89374760326402,
    "zone_id": "0",
    "location_type": 1,
    "parent_station": NaN
   }
  },
  {
   "type": "Feature",
   "geometry": {
    "type": "Point",
    "coordinates": [
     143.89374760326402,
     43.7991494199016
    ]
   },
   "properties": {
    "stop_id": "S012900001800000",
    "stop_name": "農協",
    "stop_lat": 43.7991494199016,
    "stop_lon": 143.89374760326402,
    "zone_id": "Z005370",
    "location_type": 0,
    "parent_station": "S0129000018"
   }
  },
  {
   "type": "Feature",
   "geometry": {
    "type": "Point",
    "coordinates": [
     143.89374760326402,
     43.7991494199016
    ]
   },
   "properties": {
    "stop_id": "S012900001800001",
    "stop_name": "農協",
    "stop_lat": 43.7991494199016,
    "stop_lon": 143.89374760326402,
    "zone_id": "Z005371",
    "location_type": 0,
    "parent_station": "S0129000018"
   }
  },
  {
   "type": "Feature",
   "geometry": {
    "type": "Point",
    "coordinates": [
     143.892219874028,
     43.8008506001459
    ]
   },
   "properties": {
    "stop_id": "S0129000019",
    "stop_name": "本町１丁目",
    "stop_lat": 43.8008506001459,
    "stop_lon": 143.892219874028,
    "zone_id": "0",
    "location_type": 1,
    "parent_station": NaN
   }
  },
  {
   "type": "Feature",
   "geometry": {
    "type": "Point",
    "coordinates": [
     143.892219874028,
     43.8008506001459
    ]
   },
   "properties": {
    "stop_id": "S012900001900000",
    "stop_name": "本町１丁目",
    "stop_lat": 43.8008506001459,
    "stop_lon": 143.892219874028,
    "zone_id": "Z003080",
    "location_type": 0,
    "parent_station": "S0129000019"
   }
  },
  {
   "type": "Feature",
   "geometry": {
    "type": "Point",
    "coordinates": [
     143.892219874028,
     43.8008506001459
    ]
   },
   "properties": {
    "stop_id": "S012900001900001",
    "stop_name": "本町１丁目",
    "stop_lat": 43.8008506001459,
    "stop_lon": 143.892219874028,
    "zone_id": "Z003081",
    "location_type": 0,
    "parent_station": "S0129000019"
   }
  },
  {
   "type": "Feature",
   "geometry": {
    "type": "Point",
    "coordinates": [
     143.890587952808,
     43.8032895468804
    ]
   },
   "properties": {
    "stop_id": "S0129000020",
    "stop_name": "４条西４丁目",
    "stop_lat": 43.8032895468804,
    "stop_lon": 143.890587952808,
    "zone_id": "0",
    "location_type": 1,
    "parent_station": NaN
   }
  },
  {
   "type": "Feature",
   "geometry": {
    "type": "Point",
    "coordinates": [
     143.890587952808,
     43.8032895468804
    ]
   },
   "properties": {
    "stop_id": "S012900002000000",
    "stop_name": "４条西４丁目",
    "stop_lat": 43.8032895468804,
    "stop_lon": 143.890587952808,
    "zone_id": "Z006090",
    "location_type": 0,
    "parent_station": "S0129000020"
   }
  },
  {
   "type": "Feature",
   "geometry": {
    "type": "Point",
    "coordinates": [
     143.890587952808,
     43.8032895468804
    ]
   },
   "properties": {
    "stop_id": "S012900002000001",
    "stop_name": "４条西４丁目",
    "stop_lat": 43.8032895468804,
    "stop_lon": 143.890587952808,
    "zone_id": "Z006091",
    "location_type": 0,
    "parent_station": "S0129000020"
   }
  },
  {
   "type": "Feature",
   "geometry": {
    "type": "Point",
    "coordinates": [
     143.892636289092,
     43.805563644976
    ]
   },
   "properties": {
    "stop_id": "S0129000021",
    "stop_name": "４条西２丁目",
    "stop_lat": 43.805563644976,
    "stop_lon": 143.892636289092,
    "zone_id": "0",
    "location_type": 1,
    "parent_station": NaN
   }
  },
  {
   "type": "Feature",
   "geometry": {
    "type": "Point",
    "coordinates": [
     143.892636289092,
     43.805563644976
    ]
   },
   "properties": {
    "stop_id": "S012900002100000",
    "stop_name": "４条西２丁目",
    "stop_lat": 43.805563644976,
    "stop_lon": 143.892636289092,
    "zone_id": "Z006080",
    "location_type": 0,
    "parent_station": "S0129000021"
   }
  },
  {
   "type": "Feature",
   "geometry": {
    "type": "Point",
    "coordinates": [
     143.895274839349,
     43.8081588995854
    ]
   },
   "properties": {
    "stop_id": "S0129000022",
    "stop_name": "日赤病院",
    "stop_lat": 43.8081588995854,
    "stop_lon": 143.895274839349,
    "zone_id": "0",
    "location_type": 1,
    "parent_station": NaN
   }
  },
  {
   "type": "Feature",
   "geometry": {
    "type": "Point",
    "coordinates": [
     143.895274839349,
     43.8081588995854
    ]
   },
   "properties": {
    "stop_id": "S012900002200000",
    "stop_name": "日赤病院",
    "stop_lat": 43.8081588995854,
    "stop_lon": 143.895274839349,
    "zone_id": "Z002830",
    "location_type": 0,
    "parent_station": "S0129000022"
   }
  },
  {
   "type": "Feature",
   "geometry": {
    "type": "Point",
    "coordinates": [
     143.895274839349,
     43.8081588995854
    ]
   },
   "properties": {
    "stop_id": "S012900002200001",
    "stop_name": "日赤病院",
    "stop_lat": 43.8081588995854,
    "stop_lon": 143.895274839349,
    "zone_id": "Z002831",
    "location_type": 0,
    "parent_station": "S0129000022"
   }
  },
  {
   "type": "Feature",
   "geometry": {
    "type": "Point",
    "coordinates": [
     143.897045632729,
     43.805832790429605
    ]
   },
   "properties": {
    "stop_id": "S0129000023",
    "stop_name": "北見駅",
    "stop_lat": 43.805832790429605,
    "stop_lon": 143.897045632729,
    "zone_id": "0",
    "location_type": 1,
    "parent_station": NaN
   }
  },
  {
   "type": "Feature",
   "geometry": {
    "type": "Point",
    "coordinates": [
     143.897045632729,
     43.805832790429605
    ]
   },
   "properties": {
    "stop_id": "S012900002300000",
    "stop_name": "北見駅",
    "stop_lat": 43.805832790429605,
    "stop_lon": 143.897045632729,
    "zone_id": "Z001400",
    "location_type": 0,
    "parent_station": "S0129000023"
   }
  },
  {
   "type": "Feature",
   "geometry": {
    "type": "Point",
    "coordinates": [
     143.895344465455,
     43.8040881556553
    ]
   },
   "properties": {
    "stop_id": "S0129000024",
    "stop_name": "大通",
    "stop_lat": 43.8040881556553,
    "stop_lon": 143.895344465455,
    "zone_id": "0",
    "location_type": 1,
    "parent_station": NaN
   }
  },
  {
   "type": "Feature",
   "geometry": {
    "type": "Point",
    "coordinates": [
     143.895344465455,
     43.8040881556553
    ]
   },
   "properties": {
    "stop_id": "S012900002400000",
    "stop_name": "大通",
    "stop_lat": 43.8040881556553,
    "stop_lon": 143.895344465455,
    "zone_id": "Z002050",
    "location_type": 0,
    "parent_station": "S0129000024"
   }
  },
  {
   "type": "Feature",
   "geometry": {
    "type": "Point",
    "coordinates": [
     143.895344465455,
     43.8040881556553
    ]
   },
   "properties": {
    "stop_id": "S012900002400001",
    "stop_name": "大通",
    "stop_lat": 43.8040881556553,
    "stop_lon": 143.895344465455,
    "zone_id": "Z002051",
    "location_type": 0,
    "parent_station": "S0129000024"
   }
  },
  {
   "type": "Feature",
   "geometry": {
    "type": "Point",
    "coordinates": [
     143.896837136461,
     43.809747298645
    ]
   },
   "properties": {
    "stop_id": "S0129000025",
    "stop_name": "４条東４丁目",
    "stop_lat": 43.809747298645,
    "stop_lon": 143.896837136461,
    "zone_id": "0",
    "location_type": 1,
    "parent_station": NaN
   }
  },
  {
   "type": "Feature",
   "geometry": {
    "type": "Point",
    "coordinates": [
     143.896837136461,
     43.809747298645
    ]
   },
   "properties": {
    "stop_id": "S012900002500000",
    "stop_name": "４条東４丁目",
    "stop_lat": 43.809747298645,
    "stop_lon": 143.896837136461,
    "zone_id": "Z006070",
    "location_type": 0,
    "parent_station": "S0129000025"
   }
  },
  {
   "type": "Feature",
   "geometry": {
    "type": "Point",
    "coordinates": [
     143.896837136461,
     43.809747298645
    ]
   },
   "properties": {
    "stop_id": "S012900002500001",
    "stop_name": "４条東４丁目",
    "stop_lat": 43.809747298645,
    "stop_lon": 143.896837136461,
    "zone_id": "Z006071",
    "location_type": 0,
    "parent_station": "S0129000025"
   }
  },
  {
   "type": "Feature",
   "geometry": {
    "type": "Point",
    "coordinates": [
     143.90006587911,
     43.81313240963549
    ]
   },
   "properties": {
    "stop_id": "S0129000026",
    "stop_name": "警察署",
    "stop_lat": 43.81313240963549,
    "stop_lon": 143.90006587911,
    "zone_id": "0",
    "location_type": 1,
    "parent_station": NaN
   }
  },
  {
   "type": "Feature",
   "geometry": {
    "type": "Point",
    "coordinates": [
     143.90006587911,
     43.81313240963549
    ]
   },
   "properties": {
    "stop_id": "S012900002600000",
    "stop_name": "警察署",
    "stop_lat": 43.81313240963549,
    "stop_lon": 143.90006587911,
    "zone_id": "Z005110",
    "location_type": 0,
    "parent_station": "S0129000026"
   }
  },
  {
   "type": "Feature",
   "geometry": {
    "type": "Point",
    "coordinates": [
     143.90006587911,
     43.81313240963549
    ]
   },
   "properties": {
    "stop_id": "S012900002600001",
    "stop_name": "警察署",
    "stop_lat": 43.81313240963549,
    "stop_lon": 143.90006587911,
    "zone_id": "Z005111",
    "location_type": 0,
    "parent_station": "S0129000026"
   }
  },
  {
   "type": "Feature",
   "geometry": {
    "type": "Point",
    "coordinates": [
     143.902947443557,
     43.816187688729705
    ]
   },
   "properties": {
    "stop_id": "S0129000027",
    "stop_name": "北網圏文化センター",
    "stop_lat": 43.816187688729705,
    "stop_lon": 143.902947443557,
    "zone_id": "0",
    "location_type": 1,
    "parent_station": NaN
   }
  },
  {
   "type": "Feature",
   "geometry": {
    "type": "Point",
    "coordinates": [
     143.902947443557,
     43.816187688729705
    ]
   },
   "properties": {
    "stop_id": "S012900002700000",
    "stop_name": "北網圏文化センター",
    "stop_lat": 43.816187688729705,
    "stop_lon": 143.902947443557,
    "zone_id": "Z001340",
    "location_type": 0,
    "parent_station": "S0129000027"
   }
  },
  {
   "type": "Feature",
   "geometry": {
    "type": "Point",
    "coordinates": [
     143.902947443557,
     43.816187688729705
    ]
   },
   "properties": {
    "stop_id": "S012900002700001",
    "stop_name": "北網圏文化センター",
    "stop_lat": 43.816187688729705,
    "stop_lon": 143.902947443557,
    "zone_id": "Z001341",
    "location_type": 0,
    "parent_station": "S0129000027"
   }
  },
  {
   "type": "Feature",
   "geometry": {
    "type": "Point",
    "coordinates": [
     143.908120615445,
     43.81639609013371
    ]
   },
   "properties": {
    "stop_id": "S0129000028",
    "stop_name": "大町",
    "stop_lat": 43.81639609013371,
    "stop_lon": 143.908120615445,
    "zone_id": "0",
    "location_type": 1,
    "parent_station": NaN
   }
  },
  {
   "type": "Feature",
   "geometry": {
    "type": "Point",
    "coordinates": [
     143.908120615445,
     43.81639609013371
    ]
   },
   "properties": {
    "stop_id": "S012900002800000",
    "stop_name": "大町",
    "stop_lat": 43.81639609013371,
    "stop_lon": 143.908120615445,
    "zone_id": "Z002020",
    "location_type": 0,
    "parent_station": "S0129000028"
   }
  },
  {
   "type": "Feature",
   "geometry": {
    "type": "Point",
    "coordinates": [
     143.908120615445,
     43.81639609013371
    ]
   },
   "properties": {
    "stop_id": "S012900002800001",
    "stop_name": "大町",
    "stop_lat": 43.81639609013371,
    "stop_lon": 143.908120615445,
    "zone_id": "Z002021",
    "location_type": 0,
    "parent_station": "S0129000028"
   }
  },
  {
   "type": "Feature",
   "geometry": {
    "type": "Point",
    "coordinates": [
     143.911071661731,
     43.818513970706206
    ]
   },
   "properties": {
    "stop_id": "S0129000029",
    "stop_name": "田端町",
    "stop_lat": 43.818513970706206,
    "stop_lon": 143.911071661731,
    "zone_id": "0",
    "location_type": 1,
    "parent_station": NaN
   }
  },
  {
   "type": "Feature",
   "geometry": {
    "type": "Point",
    "coordinates": [
     143.911071661731,
     43.818513970706206
    ]
   },
   "properties": {
    "stop_id": "S012900002900000",
    "stop_name": "田端町",
    "stop_lat": 43.818513970706206,
    "stop_lon": 143.911071661731,
    "zone_id": "Z003880",
    "location_type": 0,
    "parent_station": "S0129000029"
   }
  },
  {
   "type": "Feature",
   "geometry": {
    "type": "Point",
    "coordinates": [
     143.911071661731,
     43.818513970706206
    ]
   },
   "properties": {
    "stop_id": "S012900002900001",
    "stop_name": "田端町",
    "stop_lat": 43.818513970706206,
    "stop_lon": 143.911071661731,
    "zone_id": "Z003881",
    "location_type": 0,
    "parent_station": "S0129000029"
   }
  },
  {
   "type": "Feature",
   "geometry": {
    "type": "Point",
    "coordinates": [
     143.913085315442,
     43.8199895424958
    ]
   },
   "properties": {
    "stop_id": "S0129000030",
    "stop_name": "小泉中学校入口",
    "stop_lat": 43.8199895424958,
    "stop_lon": 143.913085315442,
    "zone_id": "0",
    "location_type": 1,
    "parent_station": NaN
   }
  },
  {
   "type": "Feature",
   "geometry": {
    "type": "Point",
    "coordinates": [
     143.913085315442,
     43.8199895424958
    ]
   },
   "properties": {
    "stop_id": "S012900003000000",
    "stop_name": "小泉中学校入口",
    "stop_lat": 43.8199895424958,
    "stop_lon": 143.913085315442,
    "zone_id": "Z002390",
    "location_type": 0,
    "parent_station": "S0129000030"
   }
  },
  {
   "type": "Feature",
   "geometry": {
    "type": "Point",
    "coordinates": [
     143.913085315442,
     43.8199895424958
    ]
   },
   "properties": {
    "stop_id": "S012900003000001",
    "stop_name": "小泉中学校入口",
    "stop_lat": 43.8199895424958,
    "stop_lon": 143.913085315442,
    "zone_id": "Z002391",
    "location_type": 0,
    "parent_station": "S0129000030"
   }
  },
  {
   "type": "Feature",
   "geometry": {
    "type": "Point",
    "coordinates": [
     143.915585026309,
     43.8217602300984
    ]
   },
   "properties": {
    "stop_id": "S0129000031",
    "stop_name": "春光町３丁目",
    "stop_lat": 43.8217602300984,
    "stop_lon": 143.915585026309,
    "zone_id": "0",
    "location_type": 1,
    "parent_station": NaN
   }
  },
  {
   "type": "Feature",
   "geometry": {
    "type": "Point",
    "coordinates": [
     143.915585026309,
     43.8217602300984
    ]
   },
   "properties": {
    "stop_id": "S012900003100000",
    "stop_name": "春光町３丁目",
    "stop_lat": 43.8217602300984,
    "stop_lon": 143.915585026309,
    "zone_id": "Z002910",
    "location_type": 0,
    "parent_station": "S0129000031"
   }
  },
  {
   "type": "Feature",
   "geometry": {
    "type": "Point",
    "coordinates": [
     143.915585026309,
     43.8217602300984
    ]
   },
   "properties": {
    "stop_id": "S012900003100001",
    "stop_name": "春光町３丁目",
    "stop_lat": 43.8217602300984,
    "stop_lon": 143.915585026309,
    "zone_id": "Z002911",
    "location_type": 0,
    "parent_station": "S0129000031"
   }
  },
  {
   "type": "Feature",
   "geometry": {
    "type": "Point",
    "coordinates": [
     143.918084734379,
     43.82359167509129
    ]
   },
   "properties": {
    "stop_id": "S0129000032",
    "stop_name": "小泉７号",
    "stop_lat": 43.82359167509129,
    "stop_lon": 143.918084734379,
    "zone_id": "0",
    "location_type": 1,
    "parent_station": NaN
   }
  },
  {
   "type": "Feature",
   "geometry": {
    "type": "Point",
    "coordinates": [
     143.918084734379,
     43.82359167509129
    ]
   },
   "properties": {
    "stop_id": "S012900003200000",
    "stop_name": "小泉７号",
    "stop_lat": 43.82359167509129,
    "stop_lon": 143.918084734379,
    "zone_id": "Z002420",
    "location_type": 0,
    "parent_station": "S0129000032"
   }
  },
  {
   "type": "Feature",
   "geometry": {
    "type": "Point",
    "coordinates": [
     143.918084734379,
     43.82359167509129
    ]
   },
   "properties": {
    "stop_id": "S012900003200001",
    "stop_name": "小泉７号",
    "stop_lat": 43.82359167509129,
    "stop_lon": 143.918084734379,
    "zone_id": "Z002421",
    "location_type": 0,
    "parent_station": "S0129000032"
   }
  },
  {
   "type": "Feature",
   "geometry": {
    "type": "Point",
    "coordinates": [
     143.915515442963,
     43.8249022539212
    ]
   },
   "properties": {
    "stop_id": "S0129000033",
    "stop_name": "柏陽高校",
    "stop_lat": 43.8249022539212,
    "stop_lon": 143.915515442963,
    "zone_id": "0",
    "location_type": 1,
    "parent_station": NaN
   }
  },
  {
   "type": "Feature",
   "geometry": {
    "type": "Point",
    "coordinates": [
     143.915515442963,
     43.8249022539212
    ]
   },
   "properties": {
    "stop_id": "S012900003300000",
    "stop_name": "柏陽高校",
    "stop_lat": 43.8249022539212,
    "stop_lon": 143.915515442963,
    "zone_id": "Z003310",
    "location_type": 0,
    "parent_station": "S0129000033"
   }
  },
  {
   "type": "Feature",
   "geometry": {
    "type": "Point",
    "coordinates": [
     143.915515442963,
     43.8249022539212
    ]
   },
   "properties": {
    "stop_id": "S012900003300001",
    "stop_name": "柏陽高校",
    "stop_lat": 43.8249022539212,
    "stop_lon": 143.915515442963,
    "zone_id": "Z003311",
    "location_type": 0,
    "parent_station": "S0129000033"
   }
  },
  {
   "type": "Feature",
   "geometry": {
    "type": "Point",
    "coordinates": [
     143.912946151948,
     43.826204153123996
    ]
   },
   "properties": {
    "stop_id": "S0129000034",
    "stop_name": "修覚寺",
    "stop_lat": 43.826204153123996,
    "stop_lon": 143.912946151948,
    "zone_id": "0",
    "location_type": 1,
    "parent_station": NaN
   }
  },
  {
   "type": "Feature",
   "geometry": {
    "type": "Point",
    "coordinates": [
     143.912946151948,
     43.826204153123996
    ]
   },
   "properties": {
    "stop_id": "S012900003400000",
    "stop_name": "修覚寺",
    "stop_lat": 43.826204153123996,
    "stop_lon": 143.912946151948,
    "zone_id": "Z000930",
    "location_type": 0,
    "parent_station": "S0129000034"
   }
  },
  {
   "type": "Feature",
   "geometry": {
    "type": "Point",
    "coordinates": [
     143.912946151948,
     43.826204153123996
    ]
   },
   "properties": {
    "stop_id": "S012900003400001",
    "stop_name": "修覚寺",
    "stop_lat": 43.826204153123996,
    "stop_lon": 143.912946151948,
    "zone_id": "Z000931",
    "location_type": 0,
    "parent_station": "S0129000034"
   }
  },
  {
   "type": "Feature",
   "geometry": {
    "type": "Point",
    "coordinates": [
     143.90801585038201,
     43.829580441985996
    ]
   },
   "properties": {
    "stop_id": "S0129000035",
    "stop_name": "日赤看護大学",
    "stop_lat": 43.829580441985996,
    "stop_lon": 143.90801585038201,
    "zone_id": "0",
    "location_type": 1,
    "parent_station": NaN
   }
  },
  {
   "type": "Feature",
   "geometry": {
    "type": "Point",
    "coordinates": [
     143.90801585038201,
     43.829580441985996
    ]
   },
   "properties": {
    "stop_id": "S012900003500000",
    "stop_name": "日赤看護大学",
    "stop_lat": 43.829580441985996,
    "stop_lon": 143.90801585038201,
    "zone_id": "Z002840",
    "location_type": 0,
    "parent_station": "S0129000035"
   }
  },
  {
   "type": "Feature",
   "geometry": {
    "type": "Point",
    "coordinates": [
     143.90801585038201,
     43.829580441985996
    ]
   },
   "properties": {
    "stop_id": "S012900003500001",
    "stop_name": "日赤看護大学",
    "stop_lat": 43.829580441985996,
    "stop_lon": 143.90801585038201,
    "zone_id": "Z002841",
    "location_type": 0,
    "parent_station": "S0129000035"
   }
  },
  {
   "type": "Feature",
   "geometry": {
    "type": "Point",
    "coordinates": [
     143.90947416292,
     43.8274018810346
    ]
   },
   "properties": {
    "stop_id": "S0129000036",
    "stop_name": "聖徳寺",
    "stop_lat": 43.8274018810346,
    "stop_lon": 143.90947416292,
    "zone_id": "0",
    "location_type": 1,
    "parent_station": NaN
   }
  },
  {
   "type": "Feature",
   "geometry": {
    "type": "Point",
    "coordinates": [
     143.90947416292,
     43.8274018810346
    ]
   },
   "properties": {
    "stop_id": "S012900003600000",
    "stop_name": "聖徳寺",
    "stop_lat": 43.8274018810346,
    "stop_lon": 143.90947416292,
    "zone_id": "Z004670",
    "location_type": 0,
    "parent_station": "S0129000036"
   }
  },
  {
   "type": "Feature",
   "geometry": {
    "type": "Point",
    "coordinates": [
     143.90947416292,
     43.8274018810346
    ]
   },
   "properties": {
    "stop_id": "S012900003600001",
    "stop_name": "聖徳寺",
    "stop_lat": 43.8274018810346,
    "stop_lon": 143.90947416292,
    "zone_id": "Z004671",
    "location_type": 0,
    "parent_station": "S0129000036"
   }
  },
  {
   "type": "Feature",
   "geometry": {
    "type": "Point",
    "coordinates": [
     143.90711336098,
     43.824945505311
    ]
   },
   "properties": {
    "stop_id": "S0129000037",
    "stop_name": "学園団地",
    "stop_lat": 43.824945505311,
    "stop_lon": 143.90711336098,
    "zone_id": "0",
    "location_type": 1,
    "parent_station": NaN
   }
  },
  {
   "type": "Feature",
   "geometry": {
    "type": "Point",
    "coordinates": [
     143.90711336098,
     43.824945505311
    ]
   },
   "properties": {
    "stop_id": "S012900003700000",
    "stop_name": "学園団地",
    "stop_lat": 43.824945505311,
    "stop_lon": 143.90711336098,
    "zone_id": "Z002120",
    "location_type": 0,
    "parent_station": "S0129000037"
   }
  },
  {
   "type": "Feature",
   "geometry": {
    "type": "Point",
    "coordinates": [
     143.90711336098,
     43.824945505311
    ]
   },
   "properties": {
    "stop_id": "S012900003700001",
    "stop_name": "学園団地",
    "stop_lat": 43.824945505311,
    "stop_lon": 143.90711336098,
    "zone_id": "Z002121",
    "location_type": 0,
    "parent_station": "S0129000037"
   }
  },
  {
   "type": "Feature",
   "geometry": {
    "type": "Point",
    "coordinates": [
     143.90527328118299,
     43.82396467530211
    ]
   },
   "properties": {
    "stop_id": "S0129000038",
    "stop_name": "工業大学正門",
    "stop_lat": 43.82396467530211,
    "stop_lon": 143.90527328118299,
    "zone_id": "0",
    "location_type": 1,
    "parent_station": NaN
   }
  },
  {
   "type": "Feature",
   "geometry": {
    "type": "Point",
    "coordinates": [
     143.90527328118299,
     43.82396467530211
    ]
   },
   "properties": {
    "stop_id": "S012900003800000",
    "stop_name": "工業大学正門",
    "stop_lat": 43.82396467530211,
    "stop_lon": 143.90527328118299,
    "zone_id": "Z002610",
    "location_type": 0,
    "parent_station": "S0129000038"
   }
  },
  {
   "type": "Feature",
   "geometry": {
    "type": "Point",
    "coordinates": [
     143.90527328118299,
     43.82396467530211
    ]
   },
   "properties": {
    "stop_id": "S012900003800001",
    "stop_name": "工業大学正門",
    "stop_lat": 43.82396467530211,
    "stop_lon": 143.90527328118299,
    "zone_id": "Z002611",
    "location_type": 0,
    "parent_station": "S0129000038"
   }
  },
  {
   "type": "Feature",
   "geometry": {
    "type": "Point",
    "coordinates": [
     143.902183187696,
     43.825535633851395
    ]
   },
   "properties": {
    "stop_id": "S0129000039",
    "stop_name": "北苑寮",
    "stop_lat": 43.825535633851395,
    "stop_lon": 143.902183187696,
    "zone_id": "0",
    "location_type": 1,
    "parent_station": NaN
   }
  },
  {
   "type": "Feature",
   "geometry": {
    "type": "Point",
    "coordinates": [
     143.902183187696,
     43.825535633851395
    ]
   },
   "properties": {
    "stop_id": "S012900003900000",
    "stop_name": "北苑寮",
    "stop_lat": 43.825535633851395,
    "stop_lon": 143.902183187696,
    "zone_id": "Z001350",
    "location_type": 0,
    "parent_station": "S0129000039"
   }
  },
  {
   "type": "Feature",
   "geometry": {
    "type": "Point",
    "coordinates": [
     143.902183187696,
     43.825535633851395
    ]
   },
   "properties": {
    "stop_id": "S012900003900001",
    "stop_name": "北苑寮",
    "stop_lat": 43.825535633851395,
    "stop_lon": 143.902183187696,
    "zone_id": "Z001351",
    "location_type": 0,
    "parent_station": "S0129000039"
   }
  },
  {
   "type": "Feature",
   "geometry": {
    "type": "Point",
    "coordinates": [
     143.900204138628,
     43.826551115666106
    ]
   },
   "properties": {
    "stop_id": "S0129000040",
    "stop_name": "光の苑",
    "stop_lat": 43.826551115666106,
    "stop_lon": 143.900204138628,
    "zone_id": "0",
    "location_type": 1,
    "parent_station": NaN
   }
  },
  {
   "type": "Feature",
   "geometry": {
    "type": "Point",
    "coordinates": [
     143.900204138628,
     43.826551115666106
    ]
   },
   "properties": {
    "stop_id": "S012900004000000",
    "stop_name": "光の苑",
    "stop_lat": 43.826551115666106,
    "stop_lon": 143.900204138628,
    "zone_id": "Z000960",
    "location_type": 0,
    "parent_station": "S0129000040"
   }
  },
  {
   "type": "Feature",
   "geometry": {
    "type": "Point",
    "coordinates": [
     143.900204138628,
     43.826551115666106
    ]
   },
   "properties": {
    "stop_id": "S012900004000001",
    "stop_name": "光の苑",
    "stop_lat": 43.826551115666106,
    "stop_lon": 143.900204138628,
    "zone_id": "Z000961",
    "location_type": 0,
    "parent_station": "S0129000040"
   }
  },
  {
   "type": "Feature",
   "geometry": {
    "type": "Point",
    "coordinates": [
     143.897496040993,
     43.8263167184342
    ]
   },
   "properties": {
    "stop_id": "S0129000041",
    "stop_name": "光苑団地",
    "stop_lat": 43.8263167184342,
    "stop_lon": 143.897496040993,
    "zone_id": "0",
    "location_type": 1,
    "parent_station": NaN
   }
  },
  {
   "type": "Feature",
   "geometry": {
    "type": "Point",
    "coordinates": [
     143.897496040993,
     43.8263167184342
    ]
   },
   "properties": {
    "stop_id": "S012900004100000",
    "stop_name": "光苑団地",
    "stop_lat": 43.8263167184342,
    "stop_lon": 143.897496040993,
    "zone_id": "Z000970",
    "location_type": 0,
    "parent_station": "S0129000041"
   }
  },
  {
   "type": "Feature",
   "geometry": {
    "type": "Point",
    "coordinates": [
     143.895240215523,
     43.806084468085295
    ]
   },
   "properties": {
    "stop_id": "S0129000042",
    "stop_name": "２条通",
    "stop_lat": 43.806084468085295,
    "stop_lon": 143.895240215523,
    "zone_id": "0",
    "location_type": 1,
    "parent_station": NaN
   }
  },
  {
   "type": "Feature",
   "geometry": {
    "type": "Point",
    "coordinates": [
     143.895240215523,
     43.806084468085295
    ]
   },
   "properties": {
    "stop_id": "S012900004200000",
    "stop_name": "２条通",
    "stop_lat": 43.806084468085295,
    "stop_lon": 143.895240215523,
    "zone_id": "Z006020",
    "location_type": 0,
    "parent_station": "S0129000042"
   }
  },
  {
   "type": "Feature",
   "geometry": {
    "type": "Point",
    "coordinates": [
     143.895240215523,
     43.806084468085295
    ]
   },
   "properties": {
    "stop_id": "S012900004200001",
    "stop_name": "２条通",
    "stop_lat": 43.806084468085295,
    "stop_lon": 143.895240215523,
    "zone_id": "Z006021",
    "location_type": 0,
    "parent_station": "S0129000042"
   }
  },
  {
   "type": "Feature",
   "geometry": {
    "type": "Point",
    "coordinates": [
     143.920723317006,
     43.8254838799
    ]
   },
   "properties": {
    "stop_id": "S0129000043",
    "stop_name": "小泉団地",
    "stop_lat": 43.8254838799,
    "stop_lon": 143.920723317006,
    "zone_id": "0",
    "location_type": 1,
    "parent_station": NaN
   }
  },
  {
   "type": "Feature",
   "geometry": {
    "type": "Point",
    "coordinates": [
     143.920723317006,
     43.8254838799
    ]
   },
   "properties": {
    "stop_id": "S012900004300000",
    "stop_name": "小泉団地",
    "stop_lat": 43.8254838799,
    "stop_lon": 143.920723317006,
    "zone_id": "Z002400",
    "location_type": 0,
    "parent_station": "S0129000043"
   }
  },
  {
   "type": "Feature",
   "geometry": {
    "type": "Point",
    "coordinates": [
     143.920723317006,
     43.8254838799
    ]
   },
   "properties": {
    "stop_id": "S012900004300001",
    "stop_name": "小泉団地",
    "stop_lat": 43.8254838799,
    "stop_lon": 143.920723317006,
    "zone_id": "Z002401",
    "location_type": 0,
    "parent_station": "S0129000043"
   }
  },
  {
   "type": "Feature",
   "geometry": {
    "type": "Point",
    "coordinates": [
     143.907877553298,
     43.8169776209094
    ]
   },
   "properties": {
    "stop_id": "S0129000044",
    "stop_name": "野付牛公園入口",
    "stop_lat": 43.8169776209094,
    "stop_lon": 143.907877553298,
    "zone_id": "0",
    "location_type": 1,
    "parent_station": NaN
   }
  },
  {
   "type": "Feature",
   "geometry": {
    "type": "Point",
    "coordinates": [
     143.907877553298,
     43.8169776209094
    ]
   },
   "properties": {
    "stop_id": "S012900004400000",
    "stop_name": "野付牛公園入口",
    "stop_lat": 43.8169776209094,
    "stop_lon": 143.907877553298,
    "zone_id": "Z005690",
    "location_type": 0,
    "parent_station": "S0129000044"
   }
  },
  {
   "type": "Feature",
   "geometry": {
    "type": "Point",
    "coordinates": [
     143.910967426584,
     43.820189136931
    ]
   },
   "properties": {
    "stop_id": "S0129000045",
    "stop_name": "工業大学入口",
    "stop_lat": 43.820189136931,
    "stop_lon": 143.910967426584,
    "zone_id": "0",
    "location_type": 1,
    "parent_station": NaN
   }
  },
  {
   "type": "Feature",
   "geometry": {
    "type": "Point",
    "coordinates": [
     143.910967426584,
     43.820189136931
    ]
   },
   "properties": {
    "stop_id": "S012900004500000",
    "stop_name": "工業大学入口",
    "stop_lat": 43.820189136931,
    "stop_lon": 143.910967426584,
    "zone_id": "Z002600",
    "location_type": 0,
    "parent_station": "S0129000045"
   }
  },
  {
   "type": "Feature",
   "geometry": {
    "type": "Point",
    "coordinates": [
     143.890171472604,
     43.799991281279105
    ]
   },
   "properties": {
    "stop_id": "S0129000046",
    "stop_name": "市民会館［北見市］",
    "stop_lat": 43.799991281279105,
    "stop_lon": 143.890171472604,
    "zone_id": "0",
    "location_type": 1,
    "parent_station": NaN
   }
  },
  {
   "type": "Feature",
   "geometry": {
    "type": "Point",
    "coordinates": [
     143.890171472604,
     43.799991281279105
    ]
   },
   "properties": {
    "stop_id": "S012900004600000",
    "stop_name": "市民会館［北見市］",
    "stop_lat": 43.799991281279105,
    "stop_lon": 143.890171472604,
    "zone_id": "Z002640",
    "location_type": 0,
    "parent_station": "S0129000046"
   }
  },
  {
   "type": "Feature",
   "geometry": {
    "type": "Point",
    "coordinates": [
     143.886109318358,
     43.799808938161
    ]
   },
   "properties": {
    "stop_id": "S0129000047",
    "stop_name": "４条通",
    "stop_lat": 43.799808938161,
    "stop_lon": 143.886109318358,
    "zone_id": "0",
    "location_type": 1,
    "parent_station": NaN
   }
  },
  {
   "type": "Feature",
   "geometry": {
    "type": "Point",
    "coordinates": [
     143.886109318358,
     43.799808938161
    ]
   },
   "properties": {
    "stop_id": "S012900004700000",
    "stop_name": "４条通",
    "stop_lat": 43.799808938161,
    "stop_lon": 143.886109318358,
    "zone_id": "Z006100",
    "location_type": 0,
    "parent_station": "S0129000047"
   }
  },
  {
   "type": "Feature",
   "geometry": {
    "type": "Point",
    "coordinates": [
     143.886109318358,
     43.799808938161
    ]
   },
   "properties": {
    "stop_id": "S012900004700001",
    "stop_name": "４条通",
    "stop_lat": 43.799808938161,
    "stop_lon": 143.886109318358,
    "zone_id": "Z006101",
    "location_type": 0,
    "parent_station": "S0129000047"
   }
  },
  {
   "type": "Feature",
   "geometry": {
    "type": "Point",
    "coordinates": [
     143.88246379817699,
     43.7995832041838
    ]
   },
   "properties": {
    "stop_id": "S0129000048",
    "stop_name": "本町４丁目",
    "stop_lat": 43.7995832041838,
    "stop_lon": 143.88246379817699,
    "zone_id": "0",
    "location_type": 1,
    "parent_station": NaN
   }
  },
  {
   "type": "Feature",
   "geometry": {
    "type": "Point",
    "coordinates": [
     143.88246379817699,
     43.7995832041838
    ]
   },
   "properties": {
    "stop_id": "S012900004800000",
    "stop_name": "本町４丁目",
    "stop_lat": 43.7995832041838,
    "stop_lon": 143.88246379817699,
    "zone_id": "Z003100",
    "location_type": 0,
    "parent_station": "S0129000048"
   }
  },
  {
   "type": "Feature",
   "geometry": {
    "type": "Point",
    "coordinates": [
     143.88246379817699,
     43.7995832041838
    ]
   },
   "properties": {
    "stop_id": "S012900004800001",
    "stop_name": "本町４丁目",
    "stop_lat": 43.7995832041838,
    "stop_lon": 143.88246379817699,
    "zone_id": "Z003101",
    "location_type": 0,
    "parent_station": "S0129000048"
   }
  },
  {
   "type": "Feature",
   "geometry": {
    "type": "Point",
    "coordinates": [
     143.877741982489,
     43.799270655136795
    ]
   },
   "properties": {
    "stop_id": "S0129000049",
    "stop_name": "とん田仲通",
    "stop_lat": 43.799270655136795,
    "stop_lon": 143.877741982489,
    "zone_id": "0",
    "location_type": 1,
    "parent_station": NaN
   }
  },
  {
   "type": "Feature",
   "geometry": {
    "type": "Point",
    "coordinates": [
     143.877741982489,
     43.799270655136795
    ]
   },
   "properties": {
    "stop_id": "S012900004900000",
    "stop_name": "とん田仲通",
    "stop_lat": 43.799270655136795,
    "stop_lon": 143.877741982489,
    "zone_id": "Z000070",
    "location_type": 0,
    "parent_station": "S0129000049"
   }
  },
  {
   "type": "Feature",
   "geometry": {
    "type": "Point",
    "coordinates": [
     143.877741982489,
     43.799270655136795
    ]
   },
   "properties": {
    "stop_id": "S012900004900001",
    "stop_name": "とん田仲通",
    "stop_lat": 43.799270655136795,
    "stop_lon": 143.877741982489,
    "zone_id": "Z000071",
    "location_type": 0,
    "parent_station": "S0129000049"
   }
  },
  {
   "type": "Feature",
   "geometry": {
    "type": "Point",
    "coordinates": [
     143.878262964795,
     43.79509576356379
    ]
   },
   "properties": {
    "stop_id": "S0129000050",
    "stop_name": "南大通",
    "stop_lat": 43.79509576356379,
    "stop_lon": 143.878262964795,
    "zone_id": "0",
    "location_type": 1,
    "parent_station": NaN
   }
  },
  {
   "type": "Feature",
   "geometry": {
    "type": "Point",
    "coordinates": [
     143.878262964795,
     43.79509576356379
    ]
   },
   "properties": {
    "stop_id": "S012900005000000",
    "stop_name": "南大通",
    "stop_lat": 43.79509576356379,
    "stop_lon": 143.878262964795,
    "zone_id": "Z001600",
    "location_type": 0,
    "parent_station": "S0129000050"
   }
  },
  {
   "type": "Feature",
   "geometry": {
    "type": "Point",
    "coordinates": [
     143.878262964795,
     43.79509576356379
    ]
   },
   "properties": {
    "stop_id": "S012900005000001",
    "stop_name": "南大通",
    "stop_lat": 43.79509576356379,
    "stop_lon": 143.878262964795,
    "zone_id": "Z001601",
    "location_type": 0,
    "parent_station": "S0129000050"
   }
  },
  {
   "type": "Feature",
   "geometry": {
    "type": "Point",
    "coordinates": [
     143.878610306448,
     43.791875627947505
    ]
   },
   "properties": {
    "stop_id": "S0129000051",
    "stop_name": "無加川橋",
    "stop_lat": 43.791875627947505,
    "stop_lon": 143.878610306448,
    "zone_id": "0",
    "location_type": 1,
    "parent_station": NaN
   }
  },
  {
   "type": "Feature",
   "geometry": {
    "type": "Point",
    "coordinates": [
     143.878610306448,
     43.791875627947505
    ]
   },
   "properties": {
    "stop_id": "S012900005100000",
    "stop_name": "無加川橋",
    "stop_lat": 43.791875627947505,
    "stop_lon": 143.878610306448,
    "zone_id": "Z003830",
    "location_type": 0,
    "parent_station": "S0129000051"
   }
  },
  {
   "type": "Feature",
   "geometry": {
    "type": "Point",
    "coordinates": [
     143.878610306448,
     43.791875627947505
    ]
   },
   "properties": {
    "stop_id": "S012900005100001",
    "stop_name": "無加川橋",
    "stop_lat": 43.791875627947505,
    "stop_lon": 143.878610306448,
    "zone_id": "Z003831",
    "location_type": 0,
    "parent_station": "S0129000051"
   }
  },
  {
   "type": "Feature",
   "geometry": {
    "type": "Point",
    "coordinates": [
     143.87586764773002,
     43.7882040977498
    ]
   },
   "properties": {
    "stop_id": "S0129000052",
    "stop_name": "野付牛自動車学校",
    "stop_lat": 43.7882040977498,
    "stop_lon": 143.87586764773002,
    "zone_id": "0",
    "location_type": 1,
    "parent_station": NaN
   }
  },
  {
   "type": "Feature",
   "geometry": {
    "type": "Point",
    "coordinates": [
     143.87586764773002,
     43.7882040977498
    ]
   },
   "properties": {
    "stop_id": "S012900005200000",
    "stop_name": "野付牛自動車学校",
    "stop_lat": 43.7882040977498,
    "stop_lon": 143.87586764773002,
    "zone_id": "Z005700",
    "location_type": 0,
    "parent_station": "S0129000052"
   }
  },
  {
   "type": "Feature",
   "geometry": {
    "type": "Point",
    "coordinates": [
     143.87586764773002,
     43.7882040977498
    ]
   },
   "properties": {
    "stop_id": "S012900005200001",
    "stop_name": "野付牛自動車学校",
    "stop_lat": 43.7882040977498,
    "stop_lon": 143.87586764773002,
    "zone_id": "Z005701",
    "location_type": 0,
    "parent_station": "S0129000052"
   }
  },
  {
   "type": "Feature",
   "geometry": {
    "type": "Point",
    "coordinates": [
     143.874235956299,
     43.785652258861504
    ]
   },
   "properties": {
    "stop_id": "S0129000053",
    "stop_name": "錦町",
    "stop_lat": 43.785652258861504,
    "stop_lon": 143.874235956299,
    "zone_id": "0",
    "location_type": 1,
    "parent_station": NaN
   }
  },
  {
   "type": "Feature",
   "geometry": {
    "type": "Point",
    "coordinates": [
     143.874235956299,
     43.785652258861504
    ]
   },
   "properties": {
    "stop_id": "S012900005300000",
    "stop_name": "錦町",
    "stop_lat": 43.785652258861504,
    "stop_lon": 143.874235956299,
    "zone_id": "Z005730",
    "location_type": 0,
    "parent_station": "S0129000053"
   }
  },
  {
   "type": "Feature",
   "geometry": {
    "type": "Point",
    "coordinates": [
     143.874235956299,
     43.785652258861504
    ]
   },
   "properties": {
    "stop_id": "S012900005300001",
    "stop_name": "錦町",
    "stop_lat": 43.785652258861504,
    "stop_lon": 143.874235956299,
    "zone_id": "Z005731",
    "location_type": 0,
    "parent_station": "S0129000053"
   }
  },
  {
   "type": "Feature",
   "geometry": {
    "type": "Point",
    "coordinates": [
     143.871562655932,
     43.7837253349378
    ]
   },
   "properties": {
    "stop_id": "S0129000054",
    "stop_name": "技術専門学院",
    "stop_lat": 43.7837253349378,
    "stop_lon": 143.871562655932,
    "zone_id": "0",
    "location_type": 1,
    "parent_station": NaN
   }
  },
  {
   "type": "Feature",
   "geometry": {
    "type": "Point",
    "coordinates": [
     143.871562655932,
     43.7837253349378
    ]
   },
   "properties": {
    "stop_id": "S012900005400000",
    "stop_name": "技術専門学院",
    "stop_lat": 43.7837253349378,
    "stop_lon": 143.871562655932,
    "zone_id": "Z002730",
    "location_type": 0,
    "parent_station": "S0129000054"
   }
  },
  {
   "type": "Feature",
   "geometry": {
    "type": "Point",
    "coordinates": [
     143.871562655932,
     43.7837253349378
    ]
   },
   "properties": {
    "stop_id": "S012900005400001",
    "stop_name": "技術専門学院",
    "stop_lat": 43.7837253349378,
    "stop_lon": 143.871562655932,
    "zone_id": "Z002731",
    "location_type": 0,
    "parent_station": "S0129000054"
   }
  },
  {
   "type": "Feature",
   "geometry": {
    "type": "Point",
    "coordinates": [
     143.867708821316,
     43.7834648788135
    ]
   },
   "properties": {
    "stop_id": "S0129000055",
    "stop_name": "北光中学校",
    "stop_lat": 43.7834648788135,
    "stop_lon": 143.867708821316,
    "zone_id": "0",
    "location_type": 1,
    "parent_station": NaN
   }
  },
  {
   "type": "Feature",
   "geometry": {
    "type": "Point",
    "coordinates": [
     143.867708821316,
     43.7834648788135
    ]
   },
   "properties": {
    "stop_id": "S012900005500000",
    "stop_name": "北光中学校",
    "stop_lat": 43.7834648788135,
    "stop_lon": 143.867708821316,
    "zone_id": "Z001200",
    "location_type": 0,
    "parent_station": "S0129000055"
   }
  },
  {
   "type": "Feature",
   "geometry": {
    "type": "Point",
    "coordinates": [
     143.867708821316,
     43.7834648788135
    ]
   },
   "properties": {
    "stop_id": "S012900005500001",
    "stop_name": "北光中学校",
    "stop_lat": 43.7834648788135,
    "stop_lon": 143.867708821316,
    "zone_id": "Z001201",
    "location_type": 0,
    "parent_station": "S0129000055"
   }
  },
  {
   "type": "Feature",
   "geometry": {
    "type": "Point",
    "coordinates": [
     143.865764527554,
     43.78369919478929
    ]
   },
   "properties": {
    "stop_id": "S0129000056",
    "stop_name": "北光通",
    "stop_lat": 43.78369919478929,
    "stop_lon": 143.865764527554,
    "zone_id": "0",
    "location_type": 1,
    "parent_station": NaN
   }
  },
  {
   "type": "Feature",
   "geometry": {
    "type": "Point",
    "coordinates": [
     143.865764527554,
     43.78369919478929
    ]
   },
   "properties": {
    "stop_id": "S012900005600000",
    "stop_name": "北光通",
    "stop_lat": 43.78369919478929,
    "stop_lon": 143.865764527554,
    "zone_id": "Z001230",
    "location_type": 0,
    "parent_station": "S0129000056"
   }
  },
  {
   "type": "Feature",
   "geometry": {
    "type": "Point",
    "coordinates": [
     143.865764527554,
     43.78369919478929
    ]
   },
   "properties": {
    "stop_id": "S012900005600001",
    "stop_name": "北光通",
    "stop_lat": 43.78369919478929,
    "stop_lon": 143.865764527554,
    "zone_id": "Z001231",
    "location_type": 0,
    "parent_station": "S0129000056"
   }
  },
  {
   "type": "Feature",
   "geometry": {
    "type": "Point",
    "coordinates": [
     143.865556133993,
     43.785383038822005
    ]
   },
   "properties": {
    "stop_id": "S0129000057",
    "stop_name": "グリーン団地",
    "stop_lat": 43.785383038822005,
    "stop_lon": 143.865556133993,
    "zone_id": "0",
    "location_type": 1,
    "parent_station": NaN
   }
  },
  {
   "type": "Feature",
   "geometry": {
    "type": "Point",
    "coordinates": [
     143.865556133993,
     43.785383038822005
    ]
   },
   "properties": {
    "stop_id": "S012900005700000",
    "stop_name": "グリーン団地",
    "stop_lat": 43.785383038822005,
    "stop_lon": 143.865556133993,
    "zone_id": "Z000350",
    "location_type": 0,
    "parent_station": "S0129000057"
   }
  },
  {
   "type": "Feature",
   "geometry": {
    "type": "Point",
    "coordinates": [
     143.865556133993,
     43.785383038822005
    ]
   },
   "properties": {
    "stop_id": "S012900005700001",
    "stop_name": "グリーン団地",
    "stop_lat": 43.785383038822005,
    "stop_lon": 143.865556133993,
    "zone_id": "Z000351",
    "location_type": 0,
    "parent_station": "S0129000057"
   }
  },
  {
   "type": "Feature",
   "geometry": {
    "type": "Point",
    "coordinates": [
     143.865243535257,
     43.7880910770416
    ]
   },
   "properties": {
    "stop_id": "S0129000058",
    "stop_name": "南岸通５号線",
    "stop_lat": 43.7880910770416,
    "stop_lon": 143.865243535257,
    "zone_id": "0",
    "location_type": 1,
    "parent_station": NaN
   }
  },
  {
   "type": "Feature",
   "geometry": {
    "type": "Point",
    "coordinates": [
     143.865243535257,
     43.7880910770416
    ]
   },
   "properties": {
    "stop_id": "S012900005800000",
    "stop_name": "南岸通５号線",
    "stop_lat": 43.7880910770416,
    "stop_lon": 143.865243535257,
    "zone_id": "Z001630",
    "location_type": 0,
    "parent_station": "S0129000058"
   }
  },
  {
   "type": "Feature",
   "geometry": {
    "type": "Point",
    "coordinates": [
     143.865243535257,
     43.7880910770416
    ]
   },
   "properties": {
    "stop_id": "S012900005800001",
    "stop_name": "南岸通５号線",
    "stop_lat": 43.7880910770416,
    "stop_lon": 143.865243535257,
    "zone_id": "Z001631",
    "location_type": 0,
    "parent_station": "S0129000058"
   }
  },
  {
   "type": "Feature",
   "geometry": {
    "type": "Point",
    "coordinates": [
     143.871284666236,
     43.7888289508627
    ]
   },
   "properties": {
    "stop_id": "S0129000059",
    "stop_name": "南岸通４号線",
    "stop_lat": 43.7888289508627,
    "stop_lon": 143.871284666236,
    "zone_id": "0",
    "location_type": 1,
    "parent_station": NaN
   }
  },
  {
   "type": "Feature",
   "geometry": {
    "type": "Point",
    "coordinates": [
     143.871284666236,
     43.7888289508627
    ]
   },
   "properties": {
    "stop_id": "S012900005900000",
    "stop_name": "南岸通４号線",
    "stop_lat": 43.7888289508627,
    "stop_lon": 143.871284666236,
    "zone_id": "Z001620",
    "location_type": 0,
    "parent_station": "S0129000059"
   }
  },
  {
   "type": "Feature",
   "geometry": {
    "type": "Point",
    "coordinates": [
     143.884546898558,
     43.8008851846426
    ]
   },
   "properties": {
    "stop_id": "S0129000060",
    "stop_name": "本町３丁目",
    "stop_lat": 43.8008851846426,
    "stop_lon": 143.884546898558,
    "zone_id": "0",
    "location_type": 1,
    "parent_station": NaN
   }
  },
  {
   "type": "Feature",
   "geometry": {
    "type": "Point",
    "coordinates": [
     143.884546898558,
     43.8008851846426
    ]
   },
   "properties": {
    "stop_id": "S012900006000000",
    "stop_name": "本町３丁目",
    "stop_lat": 43.8008851846426,
    "stop_lon": 143.884546898558,
    "zone_id": "Z003090",
    "location_type": 0,
    "parent_station": "S0129000060"
   }
  },
  {
   "type": "Feature",
   "geometry": {
    "type": "Point",
    "coordinates": [
     143.884546898558,
     43.8008851846426
    ]
   },
   "properties": {
    "stop_id": "S012900006000001",
    "stop_name": "本町３丁目",
    "stop_lat": 43.8008851846426,
    "stop_lon": 143.884546898558,
    "zone_id": "Z003091",
    "location_type": 0,
    "parent_station": "S0129000060"
   }
  },
  {
   "type": "Feature",
   "geometry": {
    "type": "Point",
    "coordinates": [
     143.88409538690001,
     43.8043657072548
    ]
   },
   "properties": {
    "stop_id": "S0129000061",
    "stop_name": "美芳町７丁目",
    "stop_lat": 43.8043657072548,
    "stop_lon": 143.88409538690001,
    "zone_id": "0",
    "location_type": 1,
    "parent_station": NaN
   }
  },
  {
   "type": "Feature",
   "geometry": {
    "type": "Point",
    "coordinates": [
     143.88409538690001,
     43.8043657072548
    ]
   },
   "properties": {
    "stop_id": "S012900006100000",
    "stop_name": "美芳町７丁目",
    "stop_lat": 43.8043657072548,
    "stop_lon": 143.88409538690001,
    "zone_id": "Z004640",
    "location_type": 0,
    "parent_station": "S0129000061"
   }
  },
  {
   "type": "Feature",
   "geometry": {
    "type": "Point",
    "coordinates": [
     143.88409538690001,
     43.8043657072548
    ]
   },
   "properties": {
    "stop_id": "S012900006100001",
    "stop_name": "美芳町７丁目",
    "stop_lat": 43.8043657072548,
    "stop_lon": 143.88409538690001,
    "zone_id": "Z004641",
    "location_type": 0,
    "parent_station": "S0129000061"
   }
  },
  {
   "type": "Feature",
   "geometry": {
    "type": "Point",
    "coordinates": [
     143.88215108674402,
     43.8047388972653
    ]
   },
   "properties": {
    "stop_id": "S0129000062",
    "stop_name": "美芳町",
    "stop_lat": 43.8047388972653,
    "stop_lon": 143.88215108674402,
    "zone_id": "0",
    "location_type": 1,
    "parent_station": NaN
   }
  },
  {
   "type": "Feature",
   "geometry": {
    "type": "Point",
    "coordinates": [
     143.88215108674402,
     43.8047388972653
    ]
   },
   "properties": {
    "stop_id": "S012900006200000",
    "stop_name": "美芳町",
    "stop_lat": 43.8047388972653,
    "stop_lon": 143.88215108674402,
    "zone_id": "Z004630",
    "location_type": 0,
    "parent_station": "S0129000062"
   }
  },
  {
   "type": "Feature",
   "geometry": {
    "type": "Point",
    "coordinates": [
     143.88215108674402,
     43.8047388972653
    ]
   },
   "properties": {
    "stop_id": "S012900006200001",
    "stop_name": "美芳町",
    "stop_lat": 43.8047388972653,
    "stop_lon": 143.88215108674402,
    "zone_id": "Z004631",
    "location_type": 0,
    "parent_station": "S0129000062"
   }
  },
  {
   "type": "Feature",
   "geometry": {
    "type": "Point",
    "coordinates": [
     143.877082077269,
     43.8044350217815
    ]
   },
   "properties": {
    "stop_id": "S0129000063",
    "stop_name": "北進３号線",
    "stop_lat": 43.8044350217815,
    "stop_lon": 143.877082077269,
    "zone_id": "0",
    "location_type": 1,
    "parent_station": NaN
   }
  },
  {
   "type": "Feature",
   "geometry": {
    "type": "Point",
    "coordinates": [
     143.877082077269,
     43.8044350217815
    ]
   },
   "properties": {
    "stop_id": "S012900006300000",
    "stop_name": "北進３号線",
    "stop_lat": 43.8044350217815,
    "stop_lon": 143.877082077269,
    "zone_id": "Z001440",
    "location_type": 0,
    "parent_station": "S0129000063"
   }
  },
  {
   "type": "Feature",
   "geometry": {
    "type": "Point",
    "coordinates": [
     143.877082077269,
     43.8044350217815
    ]
   },
   "properties": {
    "stop_id": "S012900006300001",
    "stop_name": "北進３号線",
    "stop_lat": 43.8044350217815,
    "stop_lon": 143.877082077269,
    "zone_id": "Z001441",
    "location_type": 0,
    "parent_station": "S0129000063"
   }
  },
  {
   "type": "Feature",
   "geometry": {
    "type": "Point",
    "coordinates": [
     143.873228242653,
     43.8041745656573
    ]
   },
   "properties": {
    "stop_id": "S0129000064",
    "stop_name": "北進第一",
    "stop_lat": 43.8041745656573,
    "stop_lon": 143.873228242653,
    "zone_id": "0",
    "location_type": 1,
    "parent_station": NaN
   }
  },
  {
   "type": "Feature",
   "geometry": {
    "type": "Point",
    "coordinates": [
     143.873228242653,
     43.8041745656573
    ]
   },
   "properties": {
    "stop_id": "S012900006400000",
    "stop_name": "北進第一",
    "stop_lat": 43.8041745656573,
    "stop_lon": 143.873228242653,
    "zone_id": "Z001420",
    "location_type": 0,
    "parent_station": "S0129000064"
   }
  },
  {
   "type": "Feature",
   "geometry": {
    "type": "Point",
    "coordinates": [
     143.873228242653,
     43.8041745656573
    ]
   },
   "properties": {
    "stop_id": "S012900006400001",
    "stop_name": "北進第一",
    "stop_lat": 43.8041745656573,
    "stop_lon": 143.873228242653,
    "zone_id": "Z001421",
    "location_type": 0,
    "parent_station": "S0129000064"
   }
  },
  {
   "type": "Feature",
   "geometry": {
    "type": "Point",
    "coordinates": [
     143.868957777969,
     43.803870704120506
    ]
   },
   "properties": {
    "stop_id": "S0129000065",
    "stop_name": "北進４号線",
    "stop_lat": 43.803870704120506,
    "stop_lon": 143.868957777969,
    "zone_id": "0",
    "location_type": 1,
    "parent_station": NaN
   }
  },
  {
   "type": "Feature",
   "geometry": {
    "type": "Point",
    "coordinates": [
     143.868957777969,
     43.803870704120506
    ]
   },
   "properties": {
    "stop_id": "S012900006500000",
    "stop_name": "北進４号線",
    "stop_lat": 43.803870704120506,
    "stop_lon": 143.868957777969,
    "zone_id": "Z001450",
    "location_type": 0,
    "parent_station": "S0129000065"
   }
  },
  {
   "type": "Feature",
   "geometry": {
    "type": "Point",
    "coordinates": [
     143.868957777969,
     43.803870704120506
    ]
   },
   "properties": {
    "stop_id": "S012900006500001",
    "stop_name": "北進４号線",
    "stop_lat": 43.803870704120506,
    "stop_lon": 143.868957777969,
    "zone_id": "Z001451",
    "location_type": 0,
    "parent_station": "S0129000065"
   }
  },
  {
   "type": "Feature",
   "geometry": {
    "type": "Point",
    "coordinates": [
     143.865555287565,
     43.803766489168396
    ]
   },
   "properties": {
    "stop_id": "S0129000066",
    "stop_name": "北進西町",
    "stop_lat": 43.803766489168396,
    "stop_lon": 143.865555287565,
    "zone_id": "0",
    "location_type": 1,
    "parent_station": NaN
   }
  },
  {
   "type": "Feature",
   "geometry": {
    "type": "Point",
    "coordinates": [
     143.865555287565,
     43.803766489168396
    ]
   },
   "properties": {
    "stop_id": "S012900006600000",
    "stop_name": "北進西町",
    "stop_lat": 43.803766489168396,
    "stop_lon": 143.865555287565,
    "zone_id": "Z001430",
    "location_type": 0,
    "parent_station": "S0129000066"
   }
  },
  {
   "type": "Feature",
   "geometry": {
    "type": "Point",
    "coordinates": [
     143.865555287565,
     43.803766489168396
    ]
   },
   "properties": {
    "stop_id": "S012900006600001",
    "stop_name": "北進西町",
    "stop_lat": 43.803766489168396,
    "stop_lon": 143.865555287565,
    "zone_id": "Z001431",
    "location_type": 0,
    "parent_station": "S0129000066"
   }
  },
  {
   "type": "Feature",
   "geometry": {
    "type": "Point",
    "coordinates": [
     143.86371508508,
     43.8054503047007
    ]
   },
   "properties": {
    "stop_id": "S0129000067",
    "stop_name": "北進橋",
    "stop_lat": 43.8054503047007,
    "stop_lon": 143.86371508508,
    "zone_id": "0",
    "location_type": 1,
    "parent_station": NaN
   }
  },
  {
   "type": "Feature",
   "geometry": {
    "type": "Point",
    "coordinates": [
     143.86371508508,
     43.8054503047007
    ]
   },
   "properties": {
    "stop_id": "S012900006700000",
    "stop_name": "北進橋",
    "stop_lat": 43.8054503047007,
    "stop_lon": 143.86371508508,
    "zone_id": "Z001410",
    "location_type": 0,
    "parent_station": "S0129000067"
   }
  },
  {
   "type": "Feature",
   "geometry": {
    "type": "Point",
    "coordinates": [
     143.86371508508,
     43.8054503047007
    ]
   },
   "properties": {
    "stop_id": "S012900006700001",
    "stop_name": "北進橋",
    "stop_lat": 43.8054503047007,
    "stop_lon": 143.86371508508,
    "zone_id": "Z001411",
    "location_type": 0,
    "parent_station": "S0129000067"
   }
  },
  {
   "type": "Feature",
   "geometry": {
    "type": "Point",
    "coordinates": [
     143.86218735744302,
     43.8071167664363
    ]
   },
   "properties": {
    "stop_id": "S0129000068",
    "stop_name": "桂町１丁目",
    "stop_lat": 43.8071167664363,
    "stop_lon": 143.86218735744302,
    "zone_id": "0",
    "location_type": 1,
    "parent_station": NaN
   }
  },
  {
   "type": "Feature",
   "geometry": {
    "type": "Point",
    "coordinates": [
     143.86218735744302,
     43.8071167664363
    ]
   },
   "properties": {
    "stop_id": "S012900006800000",
    "stop_name": "桂町１丁目",
    "stop_lat": 43.8071167664363,
    "stop_lon": 143.86218735744302,
    "zone_id": "Z003340",
    "location_type": 0,
    "parent_station": "S0129000068"
   }
  },
  {
   "type": "Feature",
   "geometry": {
    "type": "Point",
    "coordinates": [
     143.86218735744302,
     43.8071167664363
    ]
   },
   "properties": {
    "stop_id": "S012900006800001",
    "stop_name": "桂町１丁目",
    "stop_lat": 43.8071167664363,
    "stop_lon": 143.86218735744302,
    "zone_id": "Z003341",
    "location_type": 0,
    "parent_station": "S0129000068"
   }
  },
  {
   "type": "Feature",
   "geometry": {
    "type": "Point",
    "coordinates": [
     143.855798952749,
     43.8081234916125
    ]
   },
   "properties": {
    "stop_id": "S0129000069",
    "stop_name": "夕陽ヶ丘６号線",
    "stop_lat": 43.8081234916125,
    "stop_lon": 143.855798952749,
    "zone_id": "0",
    "location_type": 1,
    "parent_station": NaN
   }
  },
  {
   "type": "Feature",
   "geometry": {
    "type": "Point",
    "coordinates": [
     143.855798952749,
     43.8081234916125
    ]
   },
   "properties": {
    "stop_id": "S012900006900000",
    "stop_name": "夕陽ヶ丘６号線",
    "stop_lat": 43.8081234916125,
    "stop_lon": 143.855798952749,
    "zone_id": "Z001810",
    "location_type": 0,
    "parent_station": "S0129000069"
   }
  },
  {
   "type": "Feature",
   "geometry": {
    "type": "Point",
    "coordinates": [
     143.855798952749,
     43.8081234916125
    ]
   },
   "properties": {
    "stop_id": "S012900006900001",
    "stop_name": "夕陽ヶ丘６号線",
    "stop_lat": 43.8081234916125,
    "stop_lon": 143.855798952749,
    "zone_id": "Z001811",
    "location_type": 0,
    "parent_station": "S0129000069"
   }
  },
  {
   "type": "Feature",
   "geometry": {
    "type": "Point",
    "coordinates": [
     143.85173680329902,
     43.8078369929684
    ]
   },
   "properties": {
    "stop_id": "S0129000070",
    "stop_name": "双葉団地",
    "stop_lat": 43.8078369929684,
    "stop_lon": 143.85173680329902,
    "zone_id": "0",
    "location_type": 1,
    "parent_station": NaN
   }
  },
  {
   "type": "Feature",
   "geometry": {
    "type": "Point",
    "coordinates": [
     143.85173680329902,
     43.8078369929684
    ]
   },
   "properties": {
    "stop_id": "S012900007000000",
    "stop_name": "双葉団地",
    "stop_lat": 43.8078369929684,
    "stop_lon": 143.85173680329902,
    "zone_id": "Z001720",
    "location_type": 0,
    "parent_station": "S0129000070"
   }
  },
  {
   "type": "Feature",
   "geometry": {
    "type": "Point",
    "coordinates": [
     143.85173680329902,
     43.8078369929684
    ]
   },
   "properties": {
    "stop_id": "S012900007000001",
    "stop_name": "双葉団地",
    "stop_lat": 43.8078369929684,
    "stop_lon": 143.85173680329902,
    "zone_id": "Z001721",
    "location_type": 0,
    "parent_station": "S0129000070"
   }
  },
  {
   "type": "Feature",
   "geometry": {
    "type": "Point",
    "coordinates": [
     143.84888982671,
     43.8076373118195
    ]
   },
   "properties": {
    "stop_id": "S0129000071",
    "stop_name": "夕陽ヶ丘７号線",
    "stop_lat": 43.8076373118195,
    "stop_lon": 143.84888982671,
    "zone_id": "0",
    "location_type": 1,
    "parent_station": NaN
   }
  },
  {
   "type": "Feature",
   "geometry": {
    "type": "Point",
    "coordinates": [
     143.84888982671,
     43.8076373118195
    ]
   },
   "properties": {
    "stop_id": "S012900007100000",
    "stop_name": "夕陽ヶ丘７号線",
    "stop_lat": 43.8076373118195,
    "stop_lon": 143.84888982671,
    "zone_id": "Z001820",
    "location_type": 0,
    "parent_station": "S0129000071"
   }
  },
  {
   "type": "Feature",
   "geometry": {
    "type": "Point",
    "coordinates": [
     143.84888982671,
     43.8076373118195
    ]
   },
   "properties": {
    "stop_id": "S012900007100001",
    "stop_name": "夕陽ヶ丘７号線",
    "stop_lat": 43.8076373118195,
    "stop_lon": 143.84888982671,
    "zone_id": "Z001821",
    "location_type": 0,
    "parent_station": "S0129000071"
   }
  },
  {
   "type": "Feature",
   "geometry": {
    "type": "Point",
    "coordinates": [
     143.849271871316,
     43.8047730415237
    ]
   },
   "properties": {
    "stop_id": "S0129000072",
    "stop_name": "緑小学校",
    "stop_lat": 43.8047730415237,
    "stop_lon": 143.849271871316,
    "zone_id": "0",
    "location_type": 1,
    "parent_station": NaN
   }
  },
  {
   "type": "Feature",
   "geometry": {
    "type": "Point",
    "coordinates": [
     143.849271871316,
     43.8047730415237
    ]
   },
   "properties": {
    "stop_id": "S012900007200000",
    "stop_name": "緑小学校",
    "stop_lat": 43.8047730415237,
    "stop_lon": 143.849271871316,
    "zone_id": "Z004310",
    "location_type": 0,
    "parent_station": "S0129000072"
   }
  },
  {
   "type": "Feature",
   "geometry": {
    "type": "Point",
    "coordinates": [
     143.847883142525,
     43.8038008990251
    ]
   },
   "properties": {
    "stop_id": "S0129000073",
    "stop_name": "緑小グラウンド",
    "stop_lat": 43.8038008990251,
    "stop_lon": 143.847883142525,
    "zone_id": "0",
    "location_type": 1,
    "parent_station": NaN
   }
  },
  {
   "type": "Feature",
   "geometry": {
    "type": "Point",
    "coordinates": [
     143.847883142525,
     43.8038008990251
    ]
   },
   "properties": {
    "stop_id": "S012900007300000",
    "stop_name": "緑小グラウンド",
    "stop_lat": 43.8038008990251,
    "stop_lon": 143.847883142525,
    "zone_id": "Z004300",
    "location_type": 0,
    "parent_station": "S0129000073"
   }
  },
  {
   "type": "Feature",
   "geometry": {
    "type": "Point",
    "coordinates": [
     143.845313918248,
     43.803653300490396
    ]
   },
   "properties": {
    "stop_id": "S0129000074",
    "stop_name": "緑町２丁目",
    "stop_lat": 43.803653300490396,
    "stop_lon": 143.845313918248,
    "zone_id": "0",
    "location_type": 1,
    "parent_station": NaN
   }
  },
  {
   "type": "Feature",
   "geometry": {
    "type": "Point",
    "coordinates": [
     143.845313918248,
     43.803653300490396
    ]
   },
   "properties": {
    "stop_id": "S012900007400000",
    "stop_name": "緑町２丁目",
    "stop_lat": 43.803653300490396,
    "stop_lon": 143.845313918248,
    "zone_id": "Z004330",
    "location_type": 0,
    "parent_station": "S0129000074"
   }
  },
  {
   "type": "Feature",
   "geometry": {
    "type": "Point",
    "coordinates": [
     143.841633677129,
     43.8034622844155
    ]
   },
   "properties": {
    "stop_id": "S0129000075",
    "stop_name": "西北見駅",
    "stop_lat": 43.8034622844155,
    "stop_lon": 143.841633677129,
    "zone_id": "0",
    "location_type": 1,
    "parent_station": NaN
   }
  },
  {
   "type": "Feature",
   "geometry": {
    "type": "Point",
    "coordinates": [
     143.841633677129,
     43.8034622844155
    ]
   },
   "properties": {
    "stop_id": "S012900007500000",
    "stop_name": "西北見駅",
    "stop_lat": 43.8034622844155,
    "stop_lon": 143.841633677129,
    "zone_id": "Z004740",
    "location_type": 0,
    "parent_station": "S0129000075"
   }
  },
  {
   "type": "Feature",
   "geometry": {
    "type": "Point",
    "coordinates": [
     143.839515803058,
     43.80334073264529
    ]
   },
   "properties": {
    "stop_id": "S0129000076",
    "stop_name": "緑町６丁目",
    "stop_lat": 43.80334073264529,
    "stop_lon": 143.839515803058,
    "zone_id": "0",
    "location_type": 1,
    "parent_station": NaN
   }
  },
  {
   "type": "Feature",
   "geometry": {
    "type": "Point",
    "coordinates": [
     143.839515803058,
     43.80334073264529
    ]
   },
   "properties": {
    "stop_id": "S012900007600000",
    "stop_name": "緑町６丁目",
    "stop_lat": 43.80334073264529,
    "stop_lon": 143.839515803058,
    "zone_id": "Z004350",
    "location_type": 0,
    "parent_station": "S0129000076"
   }
  },
  {
   "type": "Feature",
   "geometry": {
    "type": "Point",
    "coordinates": [
     143.83600912186702,
     43.803948245302
    ]
   },
   "properties": {
    "stop_id": "S0129000077",
    "stop_name": "サントライ北見",
    "stop_lat": 43.803948245302,
    "stop_lon": 143.83600912186702,
    "zone_id": "0",
    "location_type": 1,
    "parent_station": NaN
   }
  },
  {
   "type": "Feature",
   "geometry": {
    "type": "Point",
    "coordinates": [
     143.83600912186702,
     43.803948245302
    ]
   },
   "properties": {
    "stop_id": "S012900007700000",
    "stop_name": "サントライ北見",
    "stop_lat": 43.803948245302,
    "stop_lon": 143.83600912186702,
    "zone_id": "Z000360",
    "location_type": 0,
    "parent_station": "S0129000077"
   }
  },
  {
   "type": "Feature",
   "geometry": {
    "type": "Point",
    "coordinates": [
     143.83260655792802,
     43.8054410817492
    ]
   },
   "properties": {
    "stop_id": "S0129000078",
    "stop_name": "卸売団地",
    "stop_lat": 43.8054410817492,
    "stop_lon": 143.83260655792802,
    "zone_id": "0",
    "location_type": 1,
    "parent_station": NaN
   }
  },
  {
   "type": "Feature",
   "geometry": {
    "type": "Point",
    "coordinates": [
     143.83260655792802,
     43.8054410817492
    ]
   },
   "properties": {
    "stop_id": "S012900007800000",
    "stop_name": "卸売団地",
    "stop_lat": 43.8054410817492,
    "stop_lon": 143.83260655792802,
    "zone_id": "Z001690",
    "location_type": 0,
    "parent_station": "S0129000078"
   }
  },
  {
   "type": "Feature",
   "geometry": {
    "type": "Point",
    "coordinates": [
     143.828787441452,
     43.8052066651128
    ]
   },
   "properties": {
    "stop_id": "S0129000079",
    "stop_name": "北見卸売市場",
    "stop_lat": 43.8052066651128,
    "stop_lon": 143.828787441452,
    "zone_id": "0",
    "location_type": 1,
    "parent_station": NaN
   }
  },
  {
   "type": "Feature",
   "geometry": {
    "type": "Point",
    "coordinates": [
     143.828787441452,
     43.8052066651128
    ]
   },
   "properties": {
    "stop_id": "S012900007900000",
    "stop_name": "北見卸売市場",
    "stop_lat": 43.8052066651128,
    "stop_lon": 143.828787441452,
    "zone_id": "Z001370",
    "location_type": 0,
    "parent_station": "S0129000079"
   }
  },
  {
   "type": "Feature",
   "geometry": {
    "type": "Point",
    "coordinates": [
     143.829308176384,
     43.806404462757996
    ]
   },
   "properties": {
    "stop_id": "S0129000080",
    "stop_name": "運転免許試験場",
    "stop_lat": 43.806404462757996,
    "stop_lon": 143.829308176384,
    "zone_id": "0",
    "location_type": 1,
    "parent_station": NaN
   }
  },
  {
   "type": "Feature",
   "geometry": {
    "type": "Point",
    "coordinates": [
     143.829308176384,
     43.806404462757996
    ]
   },
   "properties": {
    "stop_id": "S012900008000000",
    "stop_name": "運転免許試験場",
    "stop_lat": 43.806404462757996,
    "stop_lon": 143.829308176384,
    "zone_id": "Z005390",
    "location_type": 0,
    "parent_station": "S0129000080"
   }
  },
  {
   "type": "Feature",
   "geometry": {
    "type": "Point",
    "coordinates": [
     143.835036850898,
     43.80676042752621
    ]
   },
   "properties": {
    "stop_id": "S0129000081",
    "stop_name": "夕陽ヶ丘９号線",
    "stop_lat": 43.80676042752621,
    "stop_lon": 143.835036850898,
    "zone_id": "0",
    "location_type": 1,
    "parent_station": NaN
   }
  },
  {
   "type": "Feature",
   "geometry": {
    "type": "Point",
    "coordinates": [
     143.835036850898,
     43.80676042752621
    ]
   },
   "properties": {
    "stop_id": "S012900008100000",
    "stop_name": "夕陽ヶ丘９号線",
    "stop_lat": 43.80676042752621,
    "stop_lon": 143.835036850898,
    "zone_id": "Z001840",
    "location_type": 0,
    "parent_station": "S0129000081"
   }
  },
  {
   "type": "Feature",
   "geometry": {
    "type": "Point",
    "coordinates": [
     143.835036850898,
     43.80676042752621
    ]
   },
   "properties": {
    "stop_id": "S012900008100001",
    "stop_name": "夕陽ヶ丘９号線",
    "stop_lat": 43.80676042752621,
    "stop_lon": 143.835036850898,
    "zone_id": "Z001841",
    "location_type": 0,
    "parent_station": "S0129000081"
   }
  },
  {
   "type": "Feature",
   "geometry": {
    "type": "Point",
    "coordinates": [
     143.838508774387,
     43.8069861584716
    ]
   },
   "properties": {
    "stop_id": "S0129000082",
    "stop_name": "卸町１丁目",
    "stop_lat": 43.8069861584716,
    "stop_lon": 143.838508774387,
    "zone_id": "0",
    "location_type": 1,
    "parent_station": NaN
   }
  },
  {
   "type": "Feature",
   "geometry": {
    "type": "Point",
    "coordinates": [
     143.838508774387,
     43.8069861584716
    ]
   },
   "properties": {
    "stop_id": "S012900008200000",
    "stop_name": "卸町１丁目",
    "stop_lat": 43.8069861584716,
    "stop_lon": 143.838508774387,
    "zone_id": "Z001700",
    "location_type": 0,
    "parent_station": "S0129000082"
   }
  },
  {
   "type": "Feature",
   "geometry": {
    "type": "Point",
    "coordinates": [
     143.838508774387,
     43.8069861584716
    ]
   },
   "properties": {
    "stop_id": "S012900008200001",
    "stop_name": "卸町１丁目",
    "stop_lat": 43.8069861584716,
    "stop_lon": 143.838508774387,
    "zone_id": "Z001701",
    "location_type": 0,
    "parent_station": "S0129000082"
   }
  },
  {
   "type": "Feature",
   "geometry": {
    "type": "Point",
    "coordinates": [
     143.841945979335,
     43.8071945295561
    ]
   },
   "properties": {
    "stop_id": "S0129000083",
    "stop_name": "夕陽ヶ丘８号線",
    "stop_lat": 43.8071945295561,
    "stop_lon": 143.841945979335,
    "zone_id": "0",
    "location_type": 1,
    "parent_station": NaN
   }
  },
  {
   "type": "Feature",
   "geometry": {
    "type": "Point",
    "coordinates": [
     143.841945979335,
     43.8071945295561
    ]
   },
   "properties": {
    "stop_id": "S012900008300000",
    "stop_name": "夕陽ヶ丘８号線",
    "stop_lat": 43.8071945295561,
    "stop_lon": 143.841945979335,
    "zone_id": "Z001830",
    "location_type": 0,
    "parent_station": "S0129000083"
   }
  },
  {
   "type": "Feature",
   "geometry": {
    "type": "Point",
    "coordinates": [
     143.841945979335,
     43.8071945295561
    ]
   },
   "properties": {
    "stop_id": "S012900008300001",
    "stop_name": "夕陽ヶ丘８号線",
    "stop_lat": 43.8071945295561,
    "stop_lon": 143.841945979335,
    "zone_id": "Z001831",
    "location_type": 0,
    "parent_station": "S0129000083"
   }
  },
  {
   "type": "Feature",
   "geometry": {
    "type": "Point",
    "coordinates": [
     143.84222382716,
     43.805172181276596
    ]
   },
   "properties": {
    "stop_id": "S0129000084",
    "stop_name": "緑町３丁目",
    "stop_lat": 43.805172181276596,
    "stop_lon": 143.84222382716,
    "zone_id": "0",
    "location_type": 1,
    "parent_station": NaN
   }
  },
  {
   "type": "Feature",
   "geometry": {
    "type": "Point",
    "coordinates": [
     143.84222382716,
     43.805172181276596
    ]
   },
   "properties": {
    "stop_id": "S012900008400000",
    "stop_name": "緑町３丁目",
    "stop_lat": 43.805172181276596,
    "stop_lon": 143.84222382716,
    "zone_id": "Z004340",
    "location_type": 0,
    "parent_station": "S0129000084"
   }
  },
  {
   "type": "Feature",
   "geometry": {
    "type": "Point",
    "coordinates": [
     143.84416824281098,
     43.8022905790139
    ]
   },
   "properties": {
    "stop_id": "S0129000085",
    "stop_name": "三輪通８号線",
    "stop_lat": 43.8022905790139,
    "stop_lon": 143.84416824281098,
    "zone_id": "0",
    "location_type": 1,
    "parent_station": NaN
   }
  },
  {
   "type": "Feature",
   "geometry": {
    "type": "Point",
    "coordinates": [
     143.84416824281098,
     43.8022905790139
    ]
   },
   "properties": {
    "stop_id": "S012900008500000",
    "stop_name": "三輪通８号線",
    "stop_lat": 43.8022905790139,
    "stop_lon": 143.84416824281098,
    "zone_id": "Z000570",
    "location_type": 0,
    "parent_station": "S0129000085"
   }
  },
  {
   "type": "Feature",
   "geometry": {
    "type": "Point",
    "coordinates": [
     143.851494001715,
     43.8027594068291
    ]
   },
   "properties": {
    "stop_id": "S0129000086",
    "stop_name": "北星記念病院",
    "stop_lat": 43.8027594068291,
    "stop_lon": 143.851494001715,
    "zone_id": "0",
    "location_type": 1,
    "parent_station": NaN
   }
  },
  {
   "type": "Feature",
   "geometry": {
    "type": "Point",
    "coordinates": [
     143.851494001715,
     43.8027594068291
    ]
   },
   "properties": {
    "stop_id": "S012900008600000",
    "stop_name": "北星記念病院",
    "stop_lat": 43.8027594068291,
    "stop_lon": 143.851494001715,
    "zone_id": "Z001310",
    "location_type": 0,
    "parent_station": "S0129000086"
   }
  },
  {
   "type": "Feature",
   "geometry": {
    "type": "Point",
    "coordinates": [
     143.854445137119,
     43.80294173054279
    ]
   },
   "properties": {
    "stop_id": "S0129000087",
    "stop_name": "三輪通６号線",
    "stop_lat": 43.80294173054279,
    "stop_lon": 143.854445137119,
    "zone_id": "0",
    "location_type": 1,
    "parent_station": NaN
   }
  },
  {
   "type": "Feature",
   "geometry": {
    "type": "Point",
    "coordinates": [
     143.854445137119,
     43.80294173054279
    ]
   },
   "properties": {
    "stop_id": "S012900008700000",
    "stop_name": "三輪通６号線",
    "stop_lat": 43.80294173054279,
    "stop_lon": 143.854445137119,
    "zone_id": "Z000560",
    "location_type": 0,
    "parent_station": "S0129000087"
   }
  },
  {
   "type": "Feature",
   "geometry": {
    "type": "Point",
    "coordinates": [
     143.85597265774402,
     43.8057713156813
    ]
   },
   "properties": {
    "stop_id": "S0129000088",
    "stop_name": "松原医院",
    "stop_lat": 43.8057713156813,
    "stop_lon": 143.85597265774402,
    "zone_id": "0",
    "location_type": 1,
    "parent_station": NaN
   }
  },
  {
   "type": "Feature",
   "geometry": {
    "type": "Point",
    "coordinates": [
     143.85597265774402,
     43.8057713156813
    ]
   },
   "properties": {
    "stop_id": "S012900008800000",
    "stop_name": "松原医院",
    "stop_lat": 43.8057713156813,
    "stop_lon": 143.85597265774402,
    "zone_id": "Z003260",
    "location_type": 0,
    "parent_station": "S0129000088"
   }
  },
  {
   "type": "Feature",
   "geometry": {
    "type": "Point",
    "coordinates": [
     143.85704931811702,
     43.7979336311447
    ]
   },
   "properties": {
    "stop_id": "S0129000089",
    "stop_name": "三輪",
    "stop_lat": 43.7979336311447,
    "stop_lon": 143.85704931811702,
    "zone_id": "0",
    "location_type": 1,
    "parent_station": NaN
   }
  },
  {
   "type": "Feature",
   "geometry": {
    "type": "Point",
    "coordinates": [
     143.85704931811702,
     43.7979336311447
    ]
   },
   "properties": {
    "stop_id": "S012900008900000",
    "stop_name": "三輪",
    "stop_lat": 43.7979336311447,
    "stop_lon": 143.85704931811702,
    "zone_id": "Z000540",
    "location_type": 0,
    "parent_station": "S0129000089"
   }
  },
  {
   "type": "Feature",
   "geometry": {
    "type": "Point",
    "coordinates": [
     143.863055745744,
     43.7983243192727
    ]
   },
   "properties": {
    "stop_id": "S0129000090",
    "stop_name": "運輸支局入口",
    "stop_lat": 43.7983243192727,
    "stop_lon": 143.863055745744,
    "zone_id": "0",
    "location_type": 1,
    "parent_station": NaN
   }
  },
  {
   "type": "Feature",
   "geometry": {
    "type": "Point",
    "coordinates": [
     143.863055745744,
     43.7983243192727
    ]
   },
   "properties": {
    "stop_id": "S012900009000000",
    "stop_name": "運輸支局入口",
    "stop_lat": 43.7983243192727,
    "stop_lon": 143.863055745744,
    "zone_id": "Z005400",
    "location_type": 0,
    "parent_station": "S0129000090"
   }
  },
  {
   "type": "Feature",
   "geometry": {
    "type": "Point",
    "coordinates": [
     143.86902745443,
     43.7987063271671
    ]
   },
   "properties": {
    "stop_id": "S0129000091",
    "stop_name": "光西中学校",
    "stop_lat": 43.7987063271671,
    "stop_lon": 143.86902745443,
    "zone_id": "0",
    "location_type": 1,
    "parent_station": NaN
   }
  },
  {
   "type": "Feature",
   "geometry": {
    "type": "Point",
    "coordinates": [
     143.86902745443,
     43.7987063271671
    ]
   },
   "properties": {
    "stop_id": "S012900009100000",
    "stop_name": "光西中学校",
    "stop_lat": 43.7987063271671,
    "stop_lon": 143.86902745443,
    "zone_id": "Z000980",
    "location_type": 0,
    "parent_station": "S0129000091"
   }
  },
  {
   "type": "Feature",
   "geometry": {
    "type": "Point",
    "coordinates": [
     143.873089605079,
     43.7989667869296
    ]
   },
   "properties": {
    "stop_id": "S0129000092",
    "stop_name": "西４号線",
    "stop_lat": 43.7989667869296,
    "stop_lon": 143.873089605079,
    "zone_id": "0",
    "location_type": 1,
    "parent_station": NaN
   }
  },
  {
   "type": "Feature",
   "geometry": {
    "type": "Point",
    "coordinates": [
     143.873089605079,
     43.7989667869296
    ]
   },
   "properties": {
    "stop_id": "S012900009200000",
    "stop_name": "西４号線",
    "stop_lat": 43.7989667869296,
    "stop_lon": 143.873089605079,
    "zone_id": "Z005000",
    "location_type": 0,
    "parent_station": "S0129000092"
   }
  },
  {
   "type": "Feature",
   "geometry": {
    "type": "Point",
    "coordinates": [
     143.900899298299,
     43.8097647288468
    ]
   },
   "properties": {
    "stop_id": "S0129000093",
    "stop_name": "東６丁目",
    "stop_lat": 43.8097647288468,
    "stop_lon": 143.900899298299,
    "zone_id": "0",
    "location_type": 1,
    "parent_station": NaN
   }
  },
  {
   "type": "Feature",
   "geometry": {
    "type": "Point",
    "coordinates": [
     143.900899298299,
     43.8097647288468
    ]
   },
   "properties": {
    "stop_id": "S012900009300000",
    "stop_name": "東６丁目",
    "stop_lat": 43.8097647288468,
    "stop_lon": 143.900899298299,
    "zone_id": "Z003220",
    "location_type": 0,
    "parent_station": "S0129000093"
   }
  },
  {
   "type": "Feature",
   "geometry": {
    "type": "Point",
    "coordinates": [
     143.902912923237,
     43.8118652337926
    ]
   },
   "properties": {
    "stop_id": "S0129000094",
    "stop_name": "東９丁目",
    "stop_lat": 43.8118652337926,
    "stop_lon": 143.902912923237,
    "zone_id": "0",
    "location_type": 1,
    "parent_station": NaN
   }
  },
  {
   "type": "Feature",
   "geometry": {
    "type": "Point",
    "coordinates": [
     143.902912923237,
     43.8118652337926
    ]
   },
   "properties": {
    "stop_id": "S012900009400000",
    "stop_name": "東９丁目",
    "stop_lat": 43.8118652337926,
    "stop_lon": 143.902912923237,
    "zone_id": "Z003240",
    "location_type": 0,
    "parent_station": "S0129000094"
   }
  },
  {
   "type": "Feature",
   "geometry": {
    "type": "Point",
    "coordinates": [
     143.905065419136,
     43.814104615198495
    ]
   },
   "properties": {
    "stop_id": "S0129000095",
    "stop_name": "大町郵便局",
    "stop_lat": 43.814104615198495,
    "stop_lon": 143.905065419136,
    "zone_id": "0",
    "location_type": 1,
    "parent_station": NaN
   }
  },
  {
   "type": "Feature",
   "geometry": {
    "type": "Point",
    "coordinates": [
     143.905065419136,
     43.814104615198495
    ]
   },
   "properties": {
    "stop_id": "S012900009500000",
    "stop_name": "大町郵便局",
    "stop_lat": 43.814104615198495,
    "stop_lon": 143.905065419136,
    "zone_id": "Z002030",
    "location_type": 0,
    "parent_station": "S0129000095"
   }
  },
  {
   "type": "Feature",
   "geometry": {
    "type": "Point",
    "coordinates": [
     143.898469260696,
     43.802899101308
    ]
   },
   "properties": {
    "stop_id": "S0129000096",
    "stop_name": "南仲町２丁目",
    "stop_lat": 43.802899101308,
    "stop_lon": 143.898469260696,
    "zone_id": "0",
    "location_type": 1,
    "parent_station": NaN
   }
  },
  {
   "type": "Feature",
   "geometry": {
    "type": "Point",
    "coordinates": [
     143.898469260696,
     43.802899101308
    ]
   },
   "properties": {
    "stop_id": "S012900009600000",
    "stop_name": "南仲町２丁目",
    "stop_lat": 43.802899101308,
    "stop_lon": 143.898469260696,
    "zone_id": "Z001570",
    "location_type": 0,
    "parent_station": "S0129000096"
   }
  },
  {
   "type": "Feature",
   "geometry": {
    "type": "Point",
    "coordinates": [
     143.898469260696,
     43.802899101308
    ]
   },
   "properties": {
    "stop_id": "S012900009600001",
    "stop_name": "南仲町２丁目",
    "stop_lat": 43.802899101308,
    "stop_lon": 143.898469260696,
    "zone_id": "Z001571",
    "location_type": 0,
    "parent_station": "S0129000096"
   }
  },
  {
   "type": "Feature",
   "geometry": {
    "type": "Point",
    "coordinates": [
     143.896976398665,
     43.80138882010571
    ]
   },
   "properties": {
    "stop_id": "S0129000097",
    "stop_name": "風の子公園",
    "stop_lat": 43.80138882010571,
    "stop_lon": 143.896976398665,
    "zone_id": "0",
    "location_type": 1,
    "parent_station": NaN
   }
  },
  {
   "type": "Feature",
   "geometry": {
    "type": "Point",
    "coordinates": [
     143.896976398665,
     43.80138882010571
    ]
   },
   "properties": {
    "stop_id": "S012900009700000",
    "stop_name": "風の子公園",
    "stop_lat": 43.80138882010571,
    "stop_lon": 143.896976398665,
    "zone_id": "Z005850",
    "location_type": 0,
    "parent_station": "S0129000097"
   }
  },
  {
   "type": "Feature",
   "geometry": {
    "type": "Point",
    "coordinates": [
     143.896976398665,
     43.80138882010571
    ]
   },
   "properties": {
    "stop_id": "S012900009700001",
    "stop_name": "風の子公園",
    "stop_lat": 43.80138882010571,
    "stop_lon": 143.896976398665,
    "zone_id": "Z005851",
    "location_type": 0,
    "parent_station": "S0129000097"
   }
  },
  {
   "type": "Feature",
   "geometry": {
    "type": "Point",
    "coordinates": [
     143.892566763694,
     43.80744712285911
    ]
   },
   "properties": {
    "stop_id": "S0129000098",
    "stop_name": "北見郵便局",
    "stop_lat": 43.80744712285911,
    "stop_lon": 143.892566763694,
    "zone_id": "0",
    "location_type": 1,
    "parent_station": NaN
   }
  },