{
 "type": "FeatureCollection",
 "name": "GTFS stops",
 "features": [
  {
   "type": "Feature",
   "geometry": {
    "type": "Point",
    "coordinates": [
     144.382737326963,
     42.989574415008796
    ]
   },
   "properties": {
    "stop_id": "S0115000001",
    "stop_name": "釧路駅前",
    "stop_lat": 42.989574415008796,
    "stop_lon": 144.382737326963,
    "zone_id": "0",
    "location_type": 1,
    "parent_station": NaN
   }
  },
  {
   "type": "Feature",
   "geometry": {
    "type": "Point",
    "coordinates": [
     144.382737326963,
     42.989574415008796
    ]
   },
   "properties": {
    "stop_id": "S011500000100000",
    "stop_name": "釧路駅前",
    "stop_lat": 42.989574415008796,
    "stop_lon": 144.382737326963,
    "zone_id": "Z001090",
    "location_type": 0,
    "parent_station": "S0115000001"
   }
  },
  {
   "type": "Feature",
   "geometry": {
    "type": "Point",
    "coordinates": [
     144.382737326963,
     42.989574415008796
    ]
   },
   "properties": {
    "stop_id": "S011500000100001",
    "stop_name": "釧路駅前",
    "stop_lat": 42.989574415008796,
    "stop_lon": 144.382737326963,
    "zone_id": "Z001091",
    "location_type": 0,
    "parent_station": "S0115000001"
   }
  },
  {
   "type": "Feature",
   "geometry": {
    "type": "Point",
    "coordinates": [
     144.382737326963,
     42.989574415008796
    ]
   },
   "properties": {
    "stop_id": "S011500000100002",
    "stop_name": "釧路駅前",
    "stop_lat": 42.989574415008796,
    "stop_lon": 144.382737326963,
    "zone_id": "Z001092",
    "location_type": 0,
    "parent_station": "S0115000001"
   }
  },
  {
   "type": "Feature",
   "geometry": {
    "type": "Point",
    "coordinates": [
     144.378015501284,
     42.9894788566411
    ]
   },
   "properties": {
    "stop_id": "S0115000002",
    "stop_name": "釧路中央郵便局",
    "stop_lat": 42.9894788566411,
    "stop_lon": 144.378015501284,
    "zone_id": "0",
    "location_type": 1,
    "parent_station": NaN
   }
  },
  {
   "type": "Feature",
   "geometry": {
    "type": "Point",
    "coordinates": [
     144.378015501284,
     42.9894788566411
    ]
   },
   "properties": {
    "stop_id": "S011500000200000",
    "stop_name": "釧路中央郵便局",
    "stop_lat": 42.9894788566411,
    "stop_lon": 144.378015501284,
    "zone_id": "Z001160",
    "location_type": 0,
    "parent_station": "S0115000002"
   }
  },
  {
   "type": "Feature",
   "geometry": {
    "type": "Point",
    "coordinates": [
     144.374126886985,
     42.9905290236131
    ]
   },
   "properties": {
    "stop_id": "S0115000003",
    "stop_name": "埠頭入口",
    "stop_lat": 42.9905290236131,
    "stop_lon": 144.374126886985,
    "zone_id": "0",
    "location_type": 1,
    "parent_station": NaN
   }
  },
  {
   "type": "Feature",
   "geometry": {
    "type": "Point",
    "coordinates": [
     144.374126886985,
     42.9905290236131
    ]
   },
   "properties": {
    "stop_id": "S011500000300000",
    "stop_name": "埠頭入口",
    "stop_lat": 42.9905290236131,
    "stop_lon": 144.374126886985,
    "zone_id": "Z003790",
    "location_type": 0,
    "parent_station": "S0115000003"
   }
  },
  {
   "type": "Feature",
   "geometry": {
    "type": "Point",
    "coordinates": [
     144.37548074977101,
     42.9946865886767
    ]
   },
   "properties": {
    "stop_id": "S0115000004",
    "stop_name": "北中［釧路市立］",
    "stop_lat": 42.9946865886767,
    "stop_lon": 144.37548074977101,
    "zone_id": "0",
    "location_type": 1,
    "parent_station": NaN
   }
  },
  {
   "type": "Feature",
   "geometry": {
    "type": "Point",
    "coordinates": [
     144.37548074977101,
     42.9946865886767
    ]
   },
   "properties": {
    "stop_id": "S011500000400000",
    "stop_name": "北中［釧路市立］",
    "stop_lat": 42.9946865886767,
    "stop_lon": 144.37548074977101,
    "zone_id": "Z004000",
    "location_type": 0,
    "parent_station": "S0115000004"
   }
  },
  {
   "type": "Feature",
   "geometry": {
    "type": "Point",
    "coordinates": [
     144.37433484294598,
     42.9983493713317
    ]
   },
   "properties": {
    "stop_id": "S0115000005",
    "stop_name": "東北海道病院",
    "stop_lat": 42.9983493713317,
    "stop_lon": 144.37433484294598,
    "zone_id": "0",
    "location_type": 1,
    "parent_station": NaN
   }
  },
  {
   "type": "Feature",
   "geometry": {
    "type": "Point",
    "coordinates": [
     144.37433484294598,
     42.9983493713317
    ]
   },
   "properties": {
    "stop_id": "S011500000500000",
    "stop_name": "東北海道病院",
    "stop_lat": 42.9983493713317,
    "stop_lon": 144.37433484294598,
    "zone_id": "Z005050",
    "location_type": 0,
    "parent_station": "S0115000005"
   }
  },
  {
   "type": "Feature",
   "geometry": {
    "type": "Point",
    "coordinates": [
     144.37735538066002,
     42.9993215423306
    ]
   },
   "properties": {
    "stop_id": "S0115000006",
    "stop_name": "若竹町２番地",
    "stop_lat": 42.9993215423306,
    "stop_lon": 144.37735538066002,
    "zone_id": "0",
    "location_type": 1,
    "parent_station": NaN
   }
  },
  {
   "type": "Feature",
   "geometry": {
    "type": "Point",
    "coordinates": [
     144.37735538066002,
     42.9993215423306
    ]
   },
   "properties": {
    "stop_id": "S011500000600000",
    "stop_name": "若竹町２番地",
    "stop_lat": 42.9993215423306,
    "stop_lon": 144.37735538066002,
    "zone_id": "Z005060",
    "location_type": 0,
    "parent_station": "S0115000006"
   }
  },
  {
   "type": "Feature",
   "geometry": {
    "type": "Point",
    "coordinates": [
     144.379473241943,
     42.9997208421702
    ]
   },
   "properties": {
    "stop_id": "S0115000007",
    "stop_name": "共栄大通七丁目",
    "stop_lat": 42.9997208421702,
    "stop_lon": 144.379473241943,
    "zone_id": "0",
    "location_type": 1,
    "parent_station": NaN
   }
  },
  {
   "type": "Feature",
   "geometry": {
    "type": "Point",
    "coordinates": [
     144.379473241943,
     42.9997208421702
    ]
   },
   "properties": {
    "stop_id": "S011500000700000",
    "stop_name": "共栄大通七丁目",
    "stop_lat": 42.9997208421702,
    "stop_lon": 144.379473241943,
    "zone_id": "Z001030",
    "location_type": 0,
    "parent_station": "S0115000007"
   }
  },
  {
   "type": "Feature",
   "geometry": {
    "type": "Point",
    "coordinates": [
     144.384681101598,
     43.000614934727004
    ]
   },
   "properties": {
    "stop_id": "S0115000008",
    "stop_name": "共栄中学校",
    "stop_lat": 43.000614934727004,
    "stop_lon": 144.384681101598,
    "zone_id": "0",
    "location_type": 1,
    "parent_station": NaN
   }
  },
  {
   "type": "Feature",
   "geometry": {
    "type": "Point",
    "coordinates": [
     144.384681101598,
     43.000614934727004
    ]
   },
   "properties": {
    "stop_id": "S011500000800000",
    "stop_name": "共栄中学校",
    "stop_lat": 43.000614934727004,
    "stop_lon": 144.384681101598,
    "zone_id": "Z001040",
    "location_type": 0,
    "parent_station": "S0115000008"
   }
  },
  {
   "type": "Feature",
   "geometry": {
    "type": "Point",
    "coordinates": [
     144.388500244851,
     43.000267816343005
    ]
   },
   "properties": {
    "stop_id": "S0115000009",
    "stop_name": "花園町",
    "stop_lat": 43.000267816343005,
    "stop_lon": 144.388500244851,
    "zone_id": "0",
    "location_type": 1,
    "parent_station": NaN
   }
  },
  {
   "type": "Feature",
   "geometry": {
    "type": "Point",
    "coordinates": [
     144.388500244851,
     43.000267816343005
    ]
   },
   "properties": {
    "stop_id": "S011500000900000",
    "stop_name": "花園町",
    "stop_lat": 43.000267816343005,
    "stop_lon": 144.388500244851,
    "zone_id": "Z003410",
    "location_type": 0,
    "parent_station": "S0115000009"
   }
  },
  {
   "type": "Feature",
   "geometry": {
    "type": "Point",
    "coordinates": [
     144.389888900109,
     43.002837010240896
    ]
   },
   "properties": {
    "stop_id": "S0115000010",
    "stop_name": "光陽町",
    "stop_lat": 43.002837010240896,
    "stop_lon": 144.389888900109,
    "zone_id": "0",
    "location_type": 1,
    "parent_station": NaN
   }
  },
  {
   "type": "Feature",
   "geometry": {
    "type": "Point",
    "coordinates": [
     144.389888900109,
     43.002837010240896
    ]
   },
   "properties": {
    "stop_id": "S011500001000000",
    "stop_name": "光陽町",
    "stop_lat": 43.002837010240896,
    "stop_lon": 144.389888900109,
    "zone_id": "Z001350",
    "location_type": 0,
    "parent_station": "S0115000010"
   }
  },
  {
   "type": "Feature",
   "geometry": {
    "type": "Point",
    "coordinates": [
     144.391867822493,
     43.0045729702391
    ]
   },
   "properties": {
    "stop_id": "S0115000011",
    "stop_name": "愛国",
    "stop_lat": 43.0045729702391,
    "stop_lon": 144.391867822493,
    "zone_id": "0",
    "location_type": 1,
    "parent_station": NaN
   }
  },
  {
   "type": "Feature",
   "geometry": {
    "type": "Point",
    "coordinates": [
     144.391867822493,
     43.0045729702391
    ]
   },
   "properties": {
    "stop_id": "S011500001100000",
    "stop_name": "愛国",
    "stop_lat": 43.0045729702391,
    "stop_lon": 144.391867822493,
    "zone_id": "Z000000",
    "location_type": 0,
    "parent_station": "S0115000011"
   }
  },
  {
   "type": "Feature",
   "geometry": {
    "type": "Point",
    "coordinates": [
     144.394193922279,
     43.0066561213879
    ]
   },
   "properties": {
    "stop_id": "S0115000012",
    "stop_name": "愛国商店街",
    "stop_lat": 43.0066561213879,
    "stop_lon": 144.394193922279,
    "zone_id": "0",
    "location_type": 1,
    "parent_station": NaN
   }
  },
  {
   "type": "Feature",
   "geometry": {
    "type": "Point",
    "coordinates": [
     144.394193922279,
     43.0066561213879
    ]
   },
   "properties": {
    "stop_id": "S011500001200000",
    "stop_name": "愛国商店街",
    "stop_lat": 43.0066561213879,
    "stop_lon": 144.394193922279,
    "zone_id": "Z000040",
    "location_type": 0,
    "parent_station": "S0115000012"
   }
  },
  {
   "type": "Feature",
   "geometry": {
    "type": "Point",
    "coordinates": [
     144.396867222247,
     43.008591724938796
    ]
   },
   "properties": {
    "stop_id": "S0115000013",
    "stop_name": "愛国北園通",
    "stop_lat": 43.008591724938796,
    "stop_lon": 144.396867222247,
    "zone_id": "0",
    "location_type": 1,
    "parent_station": NaN
   }
  },
  {
   "type": "Feature",
   "geometry": {
    "type": "Point",
    "coordinates": [
     144.396867222247,
     43.008591724938796
    ]
   },
   "properties": {
    "stop_id": "S011500001300000",
    "stop_name": "愛国北園通",
    "stop_lat": 43.008591724938796,
    "stop_lon": 144.396867222247,
    "zone_id": "Z000010",
    "location_type": 0,
    "parent_station": "S0115000013"
   }
  },
  {
   "type": "Feature",
   "geometry": {
    "type": "Point",
    "coordinates": [
     144.40037377076,
     43.010865848502704
    ]
   },
   "properties": {
    "stop_id": "S0115000014",
    "stop_name": "芦野小学校",
    "stop_lat": 43.010865848502704,
    "stop_lon": 144.40037377076,
    "zone_id": "0",
    "location_type": 1,
    "parent_station": NaN
   }
  },
  {
   "type": "Feature",
   "geometry": {
    "type": "Point",
    "coordinates": [
     144.40037377076,
     43.010865848502704
    ]
   },
   "properties": {
    "stop_id": "S011500001400000",
    "stop_name": "芦野小学校",
    "stop_lat": 43.010865848502704,
    "stop_lon": 144.40037377076,
    "zone_id": "Z000240",
    "location_type": 0,
    "parent_station": "S0115000014"
   }
  },
  {
   "type": "Feature",
   "geometry": {
    "type": "Point",
    "coordinates": [
     144.402491588082,
     43.012219907331
    ]
   },
   "properties": {
    "stop_id": "S0115000015",
    "stop_name": "桂木三丁目",
    "stop_lat": 43.012219907331,
    "stop_lon": 144.402491588082,
    "zone_id": "0",
    "location_type": 1,
    "parent_station": NaN
   }
  },
  {
   "type": "Feature",
   "geometry": {
    "type": "Point",
    "coordinates": [
     144.402491588082,
     43.012219907331
    ]
   },
   "properties": {
    "stop_id": "S011500001500000",
    "stop_name": "桂木三丁目",
    "stop_lat": 43.012219907331,
    "stop_lon": 144.402491588082,
    "zone_id": "Z000810",
    "location_type": 0,
    "parent_station": "S0115000015"
   }
  },
  {
   "type": "Feature",
   "geometry": {
    "type": "Point",
    "coordinates": [
     144.408602252053,
     43.01090939035279
    ]
   },
   "properties": {
    "stop_id": "S0115000016",
    "stop_name": "曙一丁目",
    "stop_lat": 43.01090939035279,
    "stop_lon": 144.408602252053,
    "zone_id": "0",
    "location_type": 1,
    "parent_station": NaN
   }
  },
  {
   "type": "Feature",
   "geometry": {
    "type": "Point",
    "coordinates": [
     144.408602252053,
     43.01090939035279
    ]
   },
   "properties": {
    "stop_id": "S011500001600000",
    "stop_name": "曙一丁目",
    "stop_lat": 43.01090939035279,
    "stop_lon": 144.408602252053,
    "zone_id": "Z000140",
    "location_type": 0,
    "parent_station": "S0115000016"
   }
  },
  {
   "type": "Feature",
   "geometry": {
    "type": "Point",
    "coordinates": [
     144.40808150713102,
     43.00992858338671
    ]
   },
   "properties": {
    "stop_id": "S0115000017",
    "stop_name": "桂木四丁目",
    "stop_lat": 43.00992858338671,
    "stop_lon": 144.40808150713102,
    "zone_id": "0",
    "location_type": 1,
    "parent_station": NaN
   }
  },
  {
   "type": "Feature",
   "geometry": {
    "type": "Point",
    "coordinates": [
     144.40808150713102,
     43.00992858338671
    ]
   },
   "properties": {
    "stop_id": "S011500001700000",
    "stop_name": "桂木四丁目",
    "stop_lat": 43.00992858338671,
    "stop_lon": 144.40808150713102,
    "zone_id": "Z000830",
    "location_type": 0,
    "parent_station": "S0115000017"
   }
  },
  {
   "type": "Feature",
   "geometry": {
    "type": "Point",
    "coordinates": [
     144.405199886334,
     43.0080971317235
    ]
   },
   "properties": {
    "stop_id": "S0115000018",
    "stop_name": "イオン釧路店",
    "stop_lat": 43.0080971317235,
    "stop_lon": 144.405199886334,
    "zone_id": "0",
    "location_type": 1,
    "parent_station": NaN
   }
  },
  {
   "type": "Feature",
   "geometry": {
    "type": "Point",
    "coordinates": [
     144.405199886334,
     43.0080971317235
    ]
   },
   "properties": {
    "stop_id": "S011500001800000",
    "stop_name": "イオン釧路店",
    "stop_lat": 43.0080971317235,
    "stop_lon": 144.405199886334,
    "zone_id": "Z000320",
    "location_type": 0,
    "parent_station": "S0115000018"
   }
  },
  {
   "type": "Feature",
   "geometry": {
    "type": "Point",
    "coordinates": [
     144.383674862207,
     42.9871180968922
    ]
   },
   "properties": {
    "stop_id": "S0115000019",
    "stop_name": "北陸銀行",
    "stop_lat": 42.9871180968922,
    "stop_lon": 144.383674862207,
    "zone_id": "0",
    "location_type": 1,
    "parent_station": NaN
   }
  },
  {
   "type": "Feature",
   "geometry": {
    "type": "Point",
    "coordinates": [
     144.383674862207,
     42.9871180968922
    ]
   },
   "properties": {
    "stop_id": "S011500001900000",
    "stop_name": "北陸銀行",
    "stop_lat": 42.9871180968922,
    "stop_lon": 144.383674862207,
    "zone_id": "Z004050",
    "location_type": 0,
    "parent_station": "S0115000019"
   }
  },
  {
   "type": "Feature",
   "geometry": {
    "type": "Point",
    "coordinates": [
     144.383501272707,
     42.986961860571206
    ]
   },
   "properties": {
    "stop_id": "S0115000020",
    "stop_name": "中央図書館・道銀前",
    "stop_lat": 42.986961860571206,
    "stop_lon": 144.383501272707,
    "zone_id": "0",
    "location_type": 1,
    "parent_station": NaN
   }
  },
  {
   "type": "Feature",
   "geometry": {
    "type": "Point",
    "coordinates": [
     144.383501272707,
     42.986961860571206
    ]
   },
   "properties": {
    "stop_id": "S011500002000000",
    "stop_name": "中央図書館・道銀前",
    "stop_lat": 42.986961860571206,
    "stop_lon": 144.383501272707,
    "zone_id": "Z004060",
    "location_type": 0,
    "parent_station": "S0115000020"
   }
  },
  {
   "type": "Feature",
   "geometry": {
    "type": "Point",
    "coordinates": [
     144.384161014476,
     42.98534746143889
    ]
   },
   "properties": {
    "stop_id": "S0115000021",
    "stop_name": "十字街七丁目",
    "stop_lat": 42.98534746143889,
    "stop_lon": 144.384161014476,
    "zone_id": "0",
    "location_type": 1,
    "parent_station": NaN
   }
  },
  {
   "type": "Feature",
   "geometry": {
    "type": "Point",
    "coordinates": [
     144.384161014476,
     42.98534746143889
    ]
   },
   "properties": {
    "stop_id": "S011500002100000",
    "stop_name": "十字街七丁目",
    "stop_lat": 42.98534746143889,
    "stop_lon": 144.384161014476,
    "zone_id": "Z001970",
    "location_type": 0,
    "parent_station": "S0115000021"
   }
  },
  {
   "type": "Feature",
   "geometry": {
    "type": "Point",
    "coordinates": [
     144.38582756871298,
     42.9847833147795
    ]
   },
   "properties": {
    "stop_id": "S0115000022",
    "stop_name": "栄町六丁目",
    "stop_lat": 42.9847833147795,
    "stop_lon": 144.38582756871298,
    "zone_id": "0",
    "location_type": 1,
    "parent_station": NaN
   }
  },
  {
   "type": "Feature",
   "geometry": {
    "type": "Point",
    "coordinates": [
     144.38582756871298,
     42.9847833147795
    ]
   },
   "properties": {
    "stop_id": "S011500002200000",
    "stop_name": "栄町六丁目",
    "stop_lat": 42.9847833147795,
    "stop_lon": 144.38582756871298,
    "zone_id": "Z001600",
    "location_type": 0,
    "parent_station": "S0115000022"
   }
  },
  {
   "type": "Feature",
   "geometry": {
    "type": "Point",
    "coordinates": [
     144.389820224736,
     42.98625892113321
    ]
   },
   "properties": {
    "stop_id": "S0115000023",
    "stop_name": "旭町",
    "stop_lat": 42.98625892113321,
    "stop_lon": 144.389820224736,
    "zone_id": "0",
    "location_type": 1,
    "parent_station": NaN
   }
  },
  {
   "type": "Feature",
   "geometry": {
    "type": "Point",
    "coordinates": [
     144.389820224736,
     42.98625892113321
    ]
   },
   "properties": {
    "stop_id": "S011500002300000",
    "stop_name": "旭町",
    "stop_lat": 42.98625892113321,
    "stop_lon": 144.389820224736,
    "zone_id": "Z000180",
    "location_type": 0,
    "parent_station": "S0115000023"
   }
  },
  {
   "type": "Feature",
   "geometry": {
    "type": "Point",
    "coordinates": [
     144.388952245262,
     42.9861721097017
    ]
   },
   "properties": {
    "stop_id": "S0115000024",
    "stop_name": "旭町ショッピングセンター",
    "stop_lat": 42.9861721097017,
    "stop_lon": 144.388952245262,
    "zone_id": "0",
    "location_type": 1,
    "parent_station": NaN
   }
  },
  {
   "type": "Feature",
   "geometry": {
    "type": "Point",
    "coordinates": [
     144.388952245262,
     42.9861721097017
    ]
   },
   "properties": {
    "stop_id": "S011500002400000",
    "stop_name": "旭町ショッピングセンター",
    "stop_lat": 42.9861721097017,
    "stop_lon": 144.388952245262,
    "zone_id": "Z000190",
    "location_type": 0,
    "parent_station": "S0115000024"
   }
  },
  {
   "type": "Feature",
   "geometry": {
    "type": "Point",
    "coordinates": [
     144.390687979614,
     42.9912236830342
    ]
   },
   "properties": {
    "stop_id": "S0115000025",
    "stop_name": "身障者福祉センター［釧路市］",
    "stop_lat": 42.9912236830342,
    "stop_lon": 144.390687979614,
    "zone_id": "0",
    "location_type": 1,
    "parent_station": NaN
   }
  },
  {
   "type": "Feature",
   "geometry": {
    "type": "Point",
    "coordinates": [
     144.390687979614,
     42.9912236830342
    ]
   },
   "properties": {
    "stop_id": "S011500002500000",
    "stop_name": "身障者福祉センター［釧路市］",
    "stop_lat": 42.9912236830342,
    "stop_lon": 144.390687979614,
    "zone_id": "Z002380",
    "location_type": 0,
    "parent_station": "S0115000025"
   }
  },
  {
   "type": "Feature",
   "geometry": {
    "type": "Point",
    "coordinates": [
     144.394749997984,
     42.99435709939011
    ]
   },
   "properties": {
    "stop_id": "S0115000026",
    "stop_name": "川北８番地",
    "stop_lat": 42.99435709939011,
    "stop_lon": 144.394749997984,
    "zone_id": "0",
    "location_type": 1,
    "parent_station": NaN
   }
  },
  {
   "type": "Feature",
   "geometry": {
    "type": "Point",
    "coordinates": [
     144.394749997984,
     42.99435709939011
    ]
   },
   "properties": {
    "stop_id": "S011500002600000",
    "stop_name": "川北８番地",
    "stop_lat": 42.99435709939011,
    "stop_lon": 144.394749997984,
    "zone_id": "Z000950",
    "location_type": 0,
    "parent_station": "S0115000026"
   }
  },
  {
   "type": "Feature",
   "geometry": {
    "type": "Point",
    "coordinates": [
     144.39429848073098,
     42.997959136782704
    ]
   },
   "properties": {
    "stop_id": "S0115000027",
    "stop_name": "古川橋詰",
    "stop_lat": 42.997959136782704,
    "stop_lon": 144.39429848073098,
    "zone_id": "0",
    "location_type": 1,
    "parent_station": NaN
   }
  },
  {
   "type": "Feature",
   "geometry": {
    "type": "Point",
    "coordinates": [
     144.39429848073098,
     42.997959136782704
    ]
   },
   "properties": {
    "stop_id": "S011500002700000",
    "stop_name": "古川橋詰",
    "stop_lat": 42.997959136782704,
    "stop_lon": 144.39429848073098,
    "zone_id": "Z003850",
    "location_type": 0,
    "parent_station": "S0115000027"
   }
  },
  {
   "type": "Feature",
   "geometry": {
    "type": "Point",
    "coordinates": [
     144.39579135435102,
     42.999217708797
    ]
   },
   "properties": {
    "stop_id": "S0115000028",
    "stop_name": "入江町５番地",
    "stop_lat": 42.999217708797,
    "stop_lon": 144.39579135435102,
    "zone_id": "0",
    "location_type": 1,
    "parent_station": NaN
   }
  },
  {
   "type": "Feature",
   "geometry": {
    "type": "Point",
    "coordinates": [
     144.39579135435102,
     42.999217708797
    ]
   },
   "properties": {
    "stop_id": "S011500002800000",
    "stop_name": "入江町５番地",
    "stop_lat": 42.999217708797,
    "stop_lon": 144.39579135435102,
    "zone_id": "Z000370",
    "location_type": 0,
    "parent_station": "S0115000028"
   }
  },
  {
   "type": "Feature",
   "geometry": {
    "type": "Point",
    "coordinates": [
     144.397353652662,
     43.0007800689752
    ]
   },
   "properties": {
    "stop_id": "S0115000029",
    "stop_name": "入江町１４番地",
    "stop_lat": 43.0007800689752,
    "stop_lon": 144.397353652662,
    "zone_id": "0",
    "location_type": 1,
    "parent_station": NaN
   }
  },
  {
   "type": "Feature",
   "geometry": {
    "type": "Point",
    "coordinates": [
     144.397353652662,
     43.0007800689752
    ]
   },
   "properties": {
    "stop_id": "S011500002900000",
    "stop_name": "入江町１４番地",
    "stop_lat": 43.0007800689752,
    "stop_lon": 144.397353652662,
    "zone_id": "Z000390",
    "location_type": 0,
    "parent_station": "S0115000029"
   }
  },
  {
   "type": "Feature",
   "geometry": {
    "type": "Point",
    "coordinates": [
     144.39565224041098,
     43.0043560456562
    ]
   },
   "properties": {
    "stop_id": "S0115000030",
    "stop_name": "愛国東一丁目",
    "stop_lat": 43.0043560456562,
    "stop_lon": 144.39565224041098,
    "zone_id": "0",
    "location_type": 1,
    "parent_station": NaN
   }
  },
  {
   "type": "Feature",
   "geometry": {
    "type": "Point",
    "coordinates": [
     144.39565224041098,
     43.0043560456562
    ]
   },
   "properties": {
    "stop_id": "S011500003000000",
    "stop_name": "愛国東一丁目",
    "stop_lat": 43.0043560456562,
    "stop_lon": 144.39565224041098,
    "zone_id": "Z000090",
    "location_type": 0,
    "parent_station": "S0115000030"
   }
  },
  {
   "type": "Feature",
   "geometry": {
    "type": "Point",
    "coordinates": [
     144.391694145872,
     43.0063088926412
    ]
   },
   "properties": {
    "stop_id": "S0115000031",
    "stop_name": "愛国東二丁目",
    "stop_lat": 43.0063088926412,
    "stop_lon": 144.391694145872,
    "zone_id": "0",
    "location_type": 1,
    "parent_station": NaN
   }
  },
  {
   "type": "Feature",
   "geometry": {
    "type": "Point",
    "coordinates": [
     144.391694145872,
     43.0063088926412
    ]
   },
   "properties": {
    "stop_id": "S011500003100000",
    "stop_name": "愛国東二丁目",
    "stop_lat": 43.0063088926412,
    "stop_lon": 144.391694145872,
    "zone_id": "Z000100",
    "location_type": 0,
    "parent_station": "S0115000031"
   }
  },
  {
   "type": "Feature",
   "geometry": {
    "type": "Point",
    "coordinates": [
     144.387631888521,
     43.00836589333299
    ]
   },
   "properties": {
    "stop_id": "S0115000032",
    "stop_name": "中園通",
    "stop_lat": 43.00836589333299,
    "stop_lon": 144.387631888521,
    "zone_id": "0",
    "location_type": 1,
    "parent_station": NaN
   }
  },
  {
   "type": "Feature",
   "geometry": {
    "type": "Point",
    "coordinates": [
     144.387631888521,
     43.00836589333299
    ]
   },
   "properties": {
    "stop_id": "S011500003200000",
    "stop_name": "中園通",
    "stop_lat": 43.00836589333299,
    "stop_lon": 144.387631888521,
    "zone_id": "Z003140",
    "location_type": 0,
    "parent_station": "S0115000032"
   }
  },
  {
   "type": "Feature",
   "geometry": {
    "type": "Point",
    "coordinates": [
     144.384923717353,
     43.0097285475004
    ]
   },
   "properties": {
    "stop_id": "S0115000033",
    "stop_name": "柳橋通",
    "stop_lat": 43.0097285475004,
    "stop_lon": 144.384923717353,
    "zone_id": "0",
    "location_type": 1,
    "parent_station": NaN
   }
  },
  {
   "type": "Feature",
   "geometry": {
    "type": "Point",
    "coordinates": [
     144.384923717353,
     43.0097285475004
    ]
   },
   "properties": {
    "stop_id": "S011500003300000",
    "stop_name": "柳橋通",
    "stop_lat": 43.0097285475004,
    "stop_lon": 144.384923717353,
    "zone_id": "Z004880",
    "location_type": 0,
    "parent_station": "S0115000033"
   }
  },
  {
   "type": "Feature",
   "geometry": {
    "type": "Point",
    "coordinates": [
     144.382215546984,
     43.011073842413396
    ]
   },
   "properties": {
    "stop_id": "S0115000034",
    "stop_name": "愛国西",
    "stop_lat": 43.011073842413396,
    "stop_lon": 144.382215546984,
    "zone_id": "0",
    "location_type": 1,
    "parent_station": NaN
   }
  },
  {
   "type": "Feature",
   "geometry": {
    "type": "Point",
    "coordinates": [
     144.382215546984,
     43.011073842413396
    ]
   },
   "properties": {
    "stop_id": "S011500003400000",
    "stop_name": "愛国西",
    "stop_lat": 43.011073842413396,
    "stop_lon": 144.382215546984,
    "zone_id": "Z000060",
    "location_type": 0,
    "parent_station": "S0115000034"
   }
  },
  {
   "type": "Feature",
   "geometry": {
    "type": "Point",
    "coordinates": [
     144.37988929813298,
     43.012228192199004
    ]
   },
   "properties": {
    "stop_id": "S0115000035",
    "stop_name": "宝橋通",
    "stop_lat": 43.012228192199004,
    "stop_lon": 144.37988929813298,
    "zone_id": "0",
    "location_type": 1,
    "parent_station": NaN
   }
  },
  {
   "type": "Feature",
   "geometry": {
    "type": "Point",
    "coordinates": [
     144.37988929813298,
     43.012228192199004
    ]
   },
   "properties": {
    "stop_id": "S011500003500000",
    "stop_name": "宝橋通",
    "stop_lat": 43.012228192199004,
    "stop_lon": 144.37988929813298,
    "zone_id": "Z002680",
    "location_type": 0,
    "parent_station": "S0115000035"
   }
  },
  {
   "type": "Feature",
   "geometry": {
    "type": "Point",
    "coordinates": [
     144.377701998573,
     43.0118202115195
    ]
   },
   "properties": {
    "stop_id": "S0115000036",
    "stop_name": "景雲中学校",
    "stop_lat": 43.0118202115195,
    "stop_lon": 144.377701998573,
    "zone_id": "0",
    "location_type": 1,
    "parent_station": NaN
   }
  },
  {
   "type": "Feature",
   "geometry": {
    "type": "Point",
    "coordinates": [
     144.377701998573,
     43.0118202115195
    ]
   },
   "properties": {
    "stop_id": "S011500003600000",
    "stop_name": "景雲中学校",
    "stop_lat": 43.0118202115195,
    "stop_lon": 144.377701998573,
    "zone_id": "Z001190",
    "location_type": 0,
    "parent_station": "S0115000036"
   }
  },
  {
   "type": "Feature",
   "geometry": {
    "type": "Point",
    "coordinates": [
     144.37416054648997,
     43.0135473954747
    ]
   },
   "properties": {
    "stop_id": "S0115000037",
    "stop_name": "東川町",
    "stop_lat": 43.0135473954747,
    "stop_lon": 144.37416054648997,
    "zone_id": "0",
    "location_type": 1,
    "parent_station": NaN
   }
  },
  {
   "type": "Feature",
   "geometry": {
    "type": "Point",
    "coordinates": [
     144.37416054648997,
     43.0135473954747
    ]
   },
   "properties": {
    "stop_id": "S011500003700000",
    "stop_name": "東川町",
    "stop_lat": 43.0135473954747,
    "stop_lon": 144.37416054648997,
    "zone_id": "Z003560",
    "location_type": 0,
    "parent_station": "S0115000037"
   }
  },
  {
   "type": "Feature",
   "geometry": {
    "type": "Point",
    "coordinates": [
     144.366140218976,
     43.017027785894
    ]
   },
   "properties": {
    "stop_id": "S0115000038",
    "stop_name": "鶴見橋通",
    "stop_lat": 43.017027785894,
    "stop_lon": 144.366140218976,
    "zone_id": "0",
    "location_type": 1,
    "parent_station": NaN
   }
  },
  {
   "type": "Feature",
   "geometry": {
    "type": "Point",
    "coordinates": [
     144.366140218976,
     43.017027785894
    ]
   },
   "properties": {
    "stop_id": "S011500003800000",
    "stop_name": "鶴見橋通",
    "stop_lat": 43.017027785894,
    "stop_lon": 144.366140218976,
    "zone_id": "Z002860",
    "location_type": 0,
    "parent_station": "S0115000038"
   }
  },
  {
   "type": "Feature",
   "geometry": {
    "type": "Point",
    "coordinates": [
     144.361765479583,
     43.019258373671796
    ]
   },
   "properties": {
    "stop_id": "S0115000039",
    "stop_name": "昭和南三丁目",
    "stop_lat": 43.019258373671796,
    "stop_lon": 144.361765479583,
    "zone_id": "0",
    "location_type": 1,
    "parent_station": NaN
   }
  },
  {
   "type": "Feature",
   "geometry": {
    "type": "Point",
    "coordinates": [
     144.361765479583,
     43.019258373671796
    ]
   },
   "properties": {
    "stop_id": "S011500003900000",
    "stop_name": "昭和南三丁目",
    "stop_lat": 43.019258373671796,
    "stop_lon": 144.361765479583,
    "zone_id": "Z002080",
    "location_type": 0,
    "parent_station": "S0115000039"
   }
  },
  {
   "type": "Feature",
   "geometry": {
    "type": "Point",
    "coordinates": [
     144.359022579086,
     43.020838017912
    ]
   },
   "properties": {
    "stop_id": "S0115000040",
    "stop_name": "農協ビル",
    "stop_lat": 43.020838017912,
    "stop_lon": 144.359022579086,
    "zone_id": "0",
    "location_type": 1,
    "parent_station": NaN
   }
  },
  {
   "type": "Feature",
   "geometry": {
    "type": "Point",
    "coordinates": [
     144.359022579086,
     43.020838017912
    ]
   },
   "properties": {
    "stop_id": "S011500004000000",
    "stop_name": "農協ビル",
    "stop_lat": 43.020838017912,
    "stop_lon": 144.359022579086,
    "zone_id": "Z003360",
    "location_type": 0,
    "parent_station": "S0115000040"
   }
  },
  {
   "type": "Feature",
   "geometry": {
    "type": "Point",
    "coordinates": [
     144.356939361212,
     43.022087847841206
    ]
   },
   "properties": {
    "stop_id": "S0115000041",
    "stop_name": "雄鉄線通",
    "stop_lat": 43.022087847841206,
    "stop_lon": 144.356939361212,
    "zone_id": "0",
    "location_type": 1,
    "parent_station": NaN
   }
  },
  {
   "type": "Feature",
   "geometry": {
    "type": "Point",
    "coordinates": [
     144.356939361212,
     43.022087847841206
    ]
   },
   "properties": {
    "stop_id": "S011500004100000",
    "stop_name": "雄鉄線通",
    "stop_lat": 43.022087847841206,
    "stop_lon": 144.356939361212,
    "zone_id": "Z004900",
    "location_type": 0,
    "parent_station": "S0115000041"
   }
  },
  {
   "type": "Feature",
   "geometry": {
    "type": "Point",
    "coordinates": [
     144.355203350711,
     43.0230338968833
    ]
   },
   "properties": {
    "stop_id": "S0115000042",
    "stop_name": "昭和南四丁目",
    "stop_lat": 43.0230338968833,
    "stop_lon": 144.355203350711,
    "zone_id": "0",
    "location_type": 1,
    "parent_station": NaN
   }
  },
  {
   "type": "Feature",
   "geometry": {
    "type": "Point",
    "coordinates": [
     144.355203350711,
     43.0230338968833
    ]
   },
   "properties": {
    "stop_id": "S011500004200000",
    "stop_name": "昭和南四丁目",
    "stop_lat": 43.0230338968833,
    "stop_lon": 144.355203350711,
    "zone_id": "Z002090",
    "location_type": 0,
    "parent_station": "S0115000042"
   }
  },
  {
   "type": "Feature",
   "geometry": {
    "type": "Point",
    "coordinates": [
     144.35537687267401,
     43.02465699019611
    ]
   },
   "properties": {
    "stop_id": "S0115000043",
    "stop_name": "商業高校［釧路商高］",
    "stop_lat": 43.02465699019611,
    "stop_lon": 144.35537687267401,
    "zone_id": "0",
    "location_type": 1,
    "parent_station": NaN
   }
  },
  {
   "type": "Feature",
   "geometry": {
    "type": "Point",
    "coordinates": [
     144.35537687267401,
     43.02465699019611
    ]
   },
   "properties": {
    "stop_id": "S011500004300000",
    "stop_name": "商業高校［釧路商高］",
    "stop_lat": 43.02465699019611,
    "stop_lon": 144.35537687267401,
    "zone_id": "Z002000",
    "location_type": 0,
    "parent_station": "S0115000043"
   }
  },
  {
   "type": "Feature",
   "geometry": {
    "type": "Point",
    "coordinates": [
     144.35537687267401,
     43.02465699019611
    ]
   },
   "properties": {
    "stop_id": "S011500004300001",
    "stop_name": "商業高校［釧路商高］",
    "stop_lat": 43.02465699019611,
    "stop_lon": 144.35537687267401,
    "zone_id": "Z002001",
    "location_type": 0,
    "parent_station": "S0115000043"
   }
  },
  {
   "type": "Feature",
   "geometry": {
    "type": "Point",
    "coordinates": [
     144.356453125818,
     43.025663845745896
    ]
   },
   "properties": {
    "stop_id": "S0115000044",
    "stop_name": "大喜湯",
    "stop_lat": 43.025663845745896,
    "stop_lon": 144.356453125818,
    "zone_id": "0",
    "location_type": 1,
    "parent_station": NaN
   }
  },
  {
   "type": "Feature",
   "geometry": {
    "type": "Point",
    "coordinates": [
     144.356453125818,
     43.025663845745896
    ]
   },
   "properties": {
    "stop_id": "S011500004400000",
    "stop_name": "大喜湯",
    "stop_lat": 43.025663845745896,
    "stop_lon": 144.356453125818,
    "zone_id": "Z002630",
    "location_type": 0,
    "parent_station": "S0115000044"
   }
  },
  {
   "type": "Feature",
   "geometry": {
    "type": "Point",
    "coordinates": [
     144.356453125818,
     43.025663845745896
    ]
   },
   "properties": {
    "stop_id": "S011500004400001",
    "stop_name": "大喜湯",
    "stop_lat": 43.025663845745896,
    "stop_lon": 144.356453125818,
    "zone_id": "Z002631",
    "location_type": 0,
    "parent_station": "S0115000044"
   }
  },
  {
   "type": "Feature",
   "geometry": {
    "type": "Point",
    "coordinates": [
     144.358501472493,
     43.027712273534895
    ]
   },
   "properties": {
    "stop_id": "S0115000045",
    "stop_name": "イオン昭和店",
    "stop_lat": 43.027712273534895,
    "stop_lon": 144.358501472493,
    "zone_id": "0",
    "location_type": 1,
    "parent_station": NaN
   }
  },
  {
   "type": "Feature",
   "geometry": {
    "type": "Point",
    "coordinates": [
     144.358501472493,
     43.027712273534895
    ]
   },
   "properties": {
    "stop_id": "S011500004500000",
    "stop_name": "イオン昭和店",
    "stop_lat": 43.027712273534895,
    "stop_lon": 144.358501472493,
    "zone_id": "Z000330",
    "location_type": 0,
    "parent_station": "S0115000045"
   }
  },
  {
   "type": "Feature",
   "geometry": {
    "type": "Point",
    "coordinates": [
     144.382320946668,
     42.984106242615006
    ]
   },
   "properties": {
    "stop_id": "S0115000046",
    "stop_name": "市役所前［釧路市］",
    "stop_lat": 42.984106242615006,
    "stop_lon": 144.382320946668,
    "zone_id": "0",
    "location_type": 1,
    "parent_station": NaN
   }
  },
  {
   "type": "Feature",
   "geometry": {
    "type": "Point",
    "coordinates": [
     144.382320946668,
     42.984106242615006
    ]
   },
   "properties": {
    "stop_id": "S011500004600000",
    "stop_name": "市役所前［釧路市］",
    "stop_lat": 42.984106242615006,
    "stop_lon": 144.382320946668,
    "zone_id": "Z001940",
    "location_type": 0,
    "parent_station": "S0115000046"
   }
  },
  {
   "type": "Feature",
   "geometry": {
    "type": "Point",
    "coordinates": [
     144.378536568713,
     42.9834552044808
    ]
   },
   "properties": {
    "stop_id": "S0115000047",
    "stop_name": "浪花町六丁目",
    "stop_lat": 42.9834552044808,
    "stop_lon": 144.378536568713,
    "zone_id": "0",
    "location_type": 1,
    "parent_station": NaN
   }
  },
  {
   "type": "Feature",
   "geometry": {
    "type": "Point",
    "coordinates": [
     144.378536568713,
     42.9834552044808
    ]
   },
   "properties": {
    "stop_id": "S011500004700000",
    "stop_name": "浪花町六丁目",
    "stop_lat": 42.9834552044808,
    "stop_lon": 144.378536568713,
    "zone_id": "Z003190",
    "location_type": 0,
    "parent_station": "S0115000047"
   }
  },
  {
   "type": "Feature",
   "geometry": {
    "type": "Point",
    "coordinates": [
     144.377251864059,
     42.98539073890329
    ]
   },
   "properties": {
    "stop_id": "S0115000048",
    "stop_name": "合同庁舎［釧路市］",
    "stop_lat": 42.98539073890329,
    "stop_lon": 144.377251864059,
    "zone_id": "0",
    "location_type": 1,
    "parent_station": NaN
   }
  },
  {
   "type": "Feature",
   "geometry": {
    "type": "Point",
    "coordinates": [
     144.377251864059,
     42.98539073890329
    ]
   },
   "properties": {
    "stop_id": "S011500004800000",
    "stop_name": "合同庁舎［釧路市］",
    "stop_lat": 42.98539073890329,
    "stop_lon": 144.377251864059,
    "zone_id": "Z001330",
    "location_type": 0,
    "parent_station": "S0115000048"
   }
  },
  {
   "type": "Feature",
   "geometry": {
    "type": "Point",
    "coordinates": [
     144.37631430084102,
     42.9884546309219
    ]
   },
   "properties": {
    "stop_id": "S0115000049",
    "stop_name": "浪花町十二丁目",
    "stop_lat": 42.9884546309219,
    "stop_lon": 144.37631430084102,
    "zone_id": "0",
    "location_type": 1,
    "parent_station": NaN
   }
  },
  {
   "type": "Feature",
   "geometry": {
    "type": "Point",
    "coordinates": [
     144.37631430084102,
     42.9884546309219
    ]
   },
   "properties": {
    "stop_id": "S011500004900000",
    "stop_name": "浪花町十二丁目",
    "stop_lat": 42.9884546309219,
    "stop_lon": 144.37631430084102,
    "zone_id": "Z003180",
    "location_type": 0,
    "parent_station": "S0115000049"
   }
  },
  {
   "type": "Feature",
   "geometry": {
    "type": "Point",
    "coordinates": [
     144.370897877778,
     42.992933223944995
    ]
   },
   "properties": {
    "stop_id": "S0115000050",
    "stop_name": "寿町四丁目",
    "stop_lat": 42.992933223944995,
    "stop_lon": 144.370897877778,
    "zone_id": "0",
    "location_type": 1,
    "parent_station": NaN
   }
  },
  {
   "type": "Feature",
   "geometry": {
    "type": "Point",
    "coordinates": [
     144.370897877778,
     42.992933223944995
    ]
   },
   "properties": {
    "stop_id": "S011500005000000",
    "stop_name": "寿町四丁目",
    "stop_lat": 42.992933223944995,
    "stop_lon": 144.370897877778,
    "zone_id": "Z001480",
    "location_type": 0,
    "parent_station": "S0115000050"
   }
  },
  {
   "type": "Feature",
   "geometry": {
    "type": "Point",
    "coordinates": [
     144.367530014396,
     42.994834003475596
    ]
   },
   "properties": {
    "stop_id": "S0115000051",
    "stop_name": "副港入口",
    "stop_lat": 42.994834003475596,
    "stop_lon": 144.367530014396,
    "zone_id": "0",
    "location_type": 1,
    "parent_station": NaN
   }
  },
  {
   "type": "Feature",
   "geometry": {
    "type": "Point",
    "coordinates": [
     144.367530014396,
     42.994834003475596
    ]
   },
   "properties": {
    "stop_id": "S011500005100000",
    "stop_name": "副港入口",
    "stop_lat": 42.994834003475596,
    "stop_lon": 144.367530014396,
    "zone_id": "Z003770",
    "location_type": 0,
    "parent_station": "S0115000051"
   }
  },
  {
   "type": "Feature",
   "geometry": {
    "type": "Point",
    "coordinates": [
     144.357808354959,
     43.0001457655149
    ]
   },
   "properties": {
    "stop_id": "S0115000052",
    "stop_name": "新川北橋詰",
    "stop_lat": 43.0001457655149,
    "stop_lon": 144.357808354959,
    "zone_id": "0",
    "location_type": 1,
    "parent_station": NaN
   }
  },
  {
   "type": "Feature",
   "geometry": {
    "type": "Point",
    "coordinates": [
     144.357808354959,
     43.0001457655149
    ]
   },
   "properties": {
    "stop_id": "S011500005200000",
    "stop_name": "新川北橋詰",
    "stop_lat": 43.0001457655149,
    "stop_lon": 144.357808354959,
    "zone_id": "Z002320",
    "location_type": 0,
    "parent_station": "S0115000052"
   }
  },
  {
   "type": "Feature",
   "geometry": {
    "type": "Point",
    "coordinates": [
     144.355412679021,
     43.0010484048997
    ]
   },
   "properties": {
    "stop_id": "S0115000053",
    "stop_name": "新富士二丁目",
    "stop_lat": 43.0010484048997,
    "stop_lon": 144.355412679021,
    "zone_id": "0",
    "location_type": 1,
    "parent_station": NaN
   }
  },
  {
   "type": "Feature",
   "geometry": {
    "type": "Point",
    "coordinates": [
     144.355412679021,
     43.0010484048997
    ]
   },
   "properties": {
    "stop_id": "S011500005300000",
    "stop_name": "新富士二丁目",
    "stop_lat": 43.0010484048997,
    "stop_lon": 144.355412679021,
    "zone_id": "Z002460",
    "location_type": 0,
    "parent_station": "S0115000053"
   }
  },
  {
   "type": "Feature",
   "geometry": {
    "type": "Point",
    "coordinates": [
     144.351975432111,
     43.001751394668
    ]
   },
   "properties": {
    "stop_id": "S0115000054",
    "stop_name": "新富士駅",
    "stop_lat": 43.001751394668,
    "stop_lon": 144.351975432111,
    "zone_id": "0",
    "location_type": 1,
    "parent_station": NaN
   }
  },
  {
   "type": "Feature",
   "geometry": {
    "type": "Point",
    "coordinates": [
     144.351975432111,
     43.001751394668
    ]
   },
   "properties": {
    "stop_id": "S011500005400000",
    "stop_name": "新富士駅",
    "stop_lat": 43.001751394668,
    "stop_lon": 144.351975432111,
    "zone_id": "Z002450",
    "location_type": 0,
    "parent_station": "S0115000054"
   }
  },
  {
   "type": "Feature",
   "geometry": {
    "type": "Point",
    "coordinates": [
     144.349510261946,
     43.003860501016796
    ]
   },
   "properties": {
    "stop_id": "S0115000055",
    "stop_name": "新富士四丁目",
    "stop_lat": 43.003860501016796,
    "stop_lon": 144.349510261946,
    "zone_id": "0",
    "location_type": 1,
    "parent_station": NaN
   }
  },
  {
   "type": "Feature",
   "geometry": {
    "type": "Point",
    "coordinates": [
     144.349510261946,
     43.003860501016796
    ]
   },
   "properties": {
    "stop_id": "S011500005500000",
    "stop_name": "新富士四丁目",
    "stop_lat": 43.003860501016796,
    "stop_lon": 144.349510261946,
    "zone_id": "Z002470",
    "location_type": 0,
    "parent_station": "S0115000055"
   }
  },
  {
   "type": "Feature",
   "geometry": {
    "type": "Point",
    "coordinates": [
     144.345864681419,
     43.0049453907421
    ]
   },
   "properties": {
    "stop_id": "S0115000056",
    "stop_name": "新陽小学校",
    "stop_lat": 43.0049453907421,
    "stop_lon": 144.345864681419,
    "zone_id": "0",
    "location_type": 1,
    "parent_station": NaN
   }
  },
  {
   "type": "Feature",
   "geometry": {
    "type": "Point",
    "coordinates": [
     144.345864681419,
     43.0049453907421
    ]
   },
   "properties": {
    "stop_id": "S011500005600000",
    "stop_name": "新陽小学校",
    "stop_lat": 43.0049453907421,
    "stop_lon": 144.345864681419,
    "zone_id": "Z002480",
    "location_type": 0,
    "parent_station": "S0115000056"
   }
  },
  {
   "type": "Feature",
   "geometry": {
    "type": "Point",
    "coordinates": [
     144.346558959494,
     43.0073062614602
    ]
   },
   "properties": {
    "stop_id": "S0115000057",
    "stop_name": "鳥取南五丁目",
    "stop_lat": 43.0073062614602,
    "stop_lon": 144.346558959494,
    "zone_id": "0",
    "location_type": 1,
    "parent_station": NaN
   }
  },
  {
   "type": "Feature",
   "geometry": {
    "type": "Point",
    "coordinates": [
     144.346558959494,
     43.0073062614602
    ]
   },
   "properties": {
    "stop_id": "S011500005700000",
    "stop_name": "鳥取南五丁目",
    "stop_lat": 43.0073062614602,
    "stop_lon": 144.346558959494,
    "zone_id": "Z003060",
    "location_type": 0,
    "parent_station": "S0115000057"
   }
  },
  {
   "type": "Feature",
   "geometry": {
    "type": "Point",
    "coordinates": [
     144.353606751081,
     43.0123926460789
    ]
   },
   "properties": {
    "stop_id": "S0115000058",
    "stop_name": "鳥取温水プール前",
    "stop_lat": 43.0123926460789,
    "stop_lon": 144.353606751081,
    "zone_id": "0",
    "location_type": 1,
    "parent_station": NaN
   }
  },
  {
   "type": "Feature",
   "geometry": {
    "type": "Point",
    "coordinates": [
     144.353606751081,
     43.0123926460789
    ]
   },
   "properties": {
    "stop_id": "S011500005800000",
    "stop_name": "鳥取温水プール前",
    "stop_lat": 43.0123926460789,
    "stop_lon": 144.353606751081,
    "zone_id": "Z003050",
    "location_type": 0,
    "parent_station": "S0115000058"
   }
  },
  {
   "type": "Feature",
   "geometry": {
    "type": "Point",
    "coordinates": [
     144.35103744368098,
     43.014050409995605
    ]
   },
   "properties": {
    "stop_id": "S0115000059",
    "stop_name": "鳥取大通四丁目",
    "stop_lat": 43.014050409995605,
    "stop_lon": 144.35103744368098,
    "zone_id": "0",
    "location_type": 1,
    "parent_station": NaN
   }
  },
  {
   "type": "Feature",
   "geometry": {
    "type": "Point",
    "coordinates": [
     144.35103744368098,
     43.014050409995605
    ]
   },
   "properties": {
    "stop_id": "S011500005900000",
    "stop_name": "鳥取大通四丁目",
    "stop_lat": 43.014050409995605,
    "stop_lon": 144.35103744368098,
    "zone_id": "Z003000",
    "location_type": 0,
    "parent_station": "S0115000059"
   }
  },
  {
   "type": "Feature",
   "geometry": {
    "type": "Point",
    "coordinates": [
     144.34912778933,
     43.0160206520118
    ]
   },
   "properties": {
    "stop_id": "S0115000060",
    "stop_name": "鳥取北五丁目",
    "stop_lat": 43.0160206520118,
    "stop_lon": 144.34912778933,
    "zone_id": "0",
    "location_type": 1,
    "parent_station": NaN
   }
  },
  {
   "type": "Feature",
   "geometry": {
    "type": "Point",
    "coordinates": [
     144.34912778933,
     43.0160206520118
    ]
   },
   "properties": {
    "stop_id": "S011500006000000",
    "stop_name": "鳥取北五丁目",
    "stop_lat": 43.0160206520118,
    "stop_lon": 144.34912778933,
    "zone_id": "Z003010",
    "location_type": 0,
    "parent_station": "S0115000060"
   }
  },
  {
   "type": "Feature",
   "geometry": {
    "type": "Point",
    "coordinates": [
     144.349891520469,
     43.0180690573645
    ]
   },
   "properties": {
    "stop_id": "S0115000061",
    "stop_name": "昭和橋",
    "stop_lat": 43.0180690573645,
    "stop_lon": 144.349891520469,
    "zone_id": "0",
    "location_type": 1,
    "parent_station": NaN
   }
  },
  {
   "type": "Feature",
   "geometry": {
    "type": "Point",
    "coordinates": [
     144.349891520469,
     43.0180690573645
    ]
   },
   "properties": {
    "stop_id": "S011500006100000",
    "stop_name": "昭和橋",
    "stop_lat": 43.0180690573645,
    "stop_lon": 144.349891520469,
    "zone_id": "Z002060",
    "location_type": 0,
    "parent_station": "S0115000061"
   }
  },
  {
   "type": "Feature",
   "geometry": {
    "type": "Point",
    "coordinates": [
     144.350932992731,
     43.0204125748921
    ]
   },
   "properties": {
    "stop_id": "S0115000062",
    "stop_name": "啓生園入口",
    "stop_lat": 43.0204125748921,
    "stop_lon": 144.350932992731,
    "zone_id": "0",
    "location_type": 1,
    "parent_station": NaN
   }
  },
  {
   "type": "Feature",
   "geometry": {
    "type": "Point",
    "coordinates": [
     144.350932992731,
     43.0204125748921
    ]
   },
   "properties": {
    "stop_id": "S011500006200000",
    "stop_name": "啓生園入口",
    "stop_lat": 43.0204125748921,
    "stop_lon": 144.350932992731,
    "zone_id": "Z001210",
    "location_type": 0,
    "parent_station": "S0115000062"
   }
  },
  {
   "type": "Feature",
   "geometry": {
    "type": "Point",
    "coordinates": [
     144.352078680956,
     43.02149754829921
    ]
   },
   "properties": {
    "stop_id": "S0115000063",
    "stop_name": "啓生園",
    "stop_lat": 43.02149754829921,
    "stop_lon": 144.352078680956,
    "zone_id": "0",
    "location_type": 1,
    "parent_station": NaN
   }
  },
  {
   "type": "Feature",
   "geometry": {
    "type": "Point",
    "coordinates": [
     144.352078680956,
     43.02149754829921
    ]
   },
   "properties": {
    "stop_id": "S011500006300000",
    "stop_name": "啓生園",
    "stop_lat": 43.02149754829921,
    "stop_lon": 144.352078680956,
    "zone_id": "Z001200",
    "location_type": 0,
    "parent_station": "S0115000063"
   }
  },
  {
   "type": "Feature",
   "geometry": {
    "type": "Point",
    "coordinates": [
     144.353259088121,
     43.02259120193979
    ]
   },
   "properties": {
    "stop_id": "S0115000064",
    "stop_name": "新昭和団地",
    "stop_lat": 43.02259120193979,
    "stop_lon": 144.353259088121,
    "zone_id": "0",
    "location_type": 1,
    "parent_station": NaN
   }
  },
  {
   "type": "Feature",
   "geometry": {
    "type": "Point",
    "coordinates": [
     144.353259088121,
     43.02259120193979
    ]
   },
   "properties": {
    "stop_id": "S011500006400000",
    "stop_name": "新昭和団地",
    "stop_lat": 43.02259120193979,
    "stop_lon": 144.353259088121,
    "zone_id": "Z002390",
    "location_type": 0,
    "parent_station": "S0115000064"
   }
  },
  {
   "type": "Feature",
   "geometry": {
    "type": "Point",
    "coordinates": [
     144.404715330209,
     42.975201336259204
    ]
   },
   "properties": {
    "stop_id": "S0115000065",
    "stop_name": "博物館［釧路市］",
    "stop_lat": 42.975201336259204,
    "stop_lon": 144.404715330209,
    "zone_id": "0",
    "location_type": 1,
    "parent_station": NaN
   }
  },
  {
   "type": "Feature",
   "geometry": {
    "type": "Point",
    "coordinates": [
     144.404715330209,
     42.975201336259204
    ]
   },
   "properties": {
    "stop_id": "S011500006500000",
    "stop_name": "博物館［釧路市］",
    "stop_lat": 42.975201336259204,
    "stop_lon": 144.404715330209,
    "zone_id": "Z003390",
    "location_type": 0,
    "parent_station": "S0115000065"
   }
  },
  {
   "type": "Feature",
   "geometry": {
    "type": "Point",
    "coordinates": [
     144.40238904259502,
     42.97719760988029
    ]
   },
   "properties": {
    "stop_id": "S0115000066",
    "stop_name": "市立病院［釧路市］",
    "stop_lat": 42.97719760988029,
    "stop_lon": 144.40238904259502,
    "zone_id": "0",
    "location_type": 1,
    "parent_station": NaN
   }
  },
  {
   "type": "Feature",
   "geometry": {
    "type": "Point",
    "coordinates": [
     144.40238904259502,
     42.97719760988029
    ]
   },
   "properties": {
    "stop_id": "S011500006600000",
    "stop_name": "市立病院［釧路市］",
    "stop_lat": 42.97719760988029,
    "stop_lon": 144.40238904259502,
    "zone_id": "Z002250",
    "location_type": 0,
    "parent_station": "S0115000066"
   }
  },
  {
   "type": "Feature",
   "geometry": {
    "type": "Point",
    "coordinates": [
     144.40381241199802,
     42.9798796395379
    ]
   },
   "properties": {
    "stop_id": "S0115000067",
    "stop_name": "鶴ヶ岱二丁目",
    "stop_lat": 42.9798796395379,
    "stop_lon": 144.40381241199802,
    "zone_id": "0",
    "location_type": 1,
    "parent_station": NaN
   }
  },
  {
   "type": "Feature",
   "geometry": {
    "type": "Point",
    "coordinates": [
     144.40381241199802,
     42.9798796395379
    ]
   },
   "properties": {
    "stop_id": "S011500006700000",
    "stop_name": "鶴ヶ岱二丁目",
    "stop_lat": 42.9798796395379,
    "stop_lon": 144.40381241199802,
    "zone_id": "Z002850",
    "location_type": 0,
    "parent_station": "S0115000067"
   }
  },
  {
   "type": "Feature",
   "geometry": {
    "type": "Point",
    "coordinates": [
     144.406207976438,
     42.9813986161335
    ]
   },
   "properties": {
    "stop_id": "S0115000068",
    "stop_name": "工業高校［釧路工高］",
    "stop_lat": 42.9813986161335,
    "stop_lon": 144.406207976438,
    "zone_id": "0",
    "location_type": 1,
    "parent_station": NaN
   }
  },
  {
   "type": "Feature",
   "geometry": {
    "type": "Point",
    "coordinates": [
     144.406207976438,
     42.9813986161335
    ]
   },
   "properties": {
    "stop_id": "S011500006800000",
    "stop_name": "工業高校［釧路工高］",
    "stop_lat": 42.9813986161335,
    "stop_lon": 144.406207976438,
    "zone_id": "Z001270",
    "location_type": 0,
    "parent_station": "S0115000068"
   }
  },
  {
   "type": "Feature",
   "geometry": {
    "type": "Point",
    "coordinates": [
     144.409367430672,
     42.981520186095295
    ]
   },
   "properties": {
    "stop_id": "S0115000069",
    "stop_name": "湖陵高校",
    "stop_lat": 42.981520186095295,
    "stop_lon": 144.409367430672,
    "zone_id": "0",
    "location_type": 1,
    "parent_station": NaN
   }
  },
  {
   "type": "Feature",
   "geometry": {
    "type": "Point",
    "coordinates": [
     144.409367430672,
     42.981520186095295
    ]
   },
   "properties": {
    "stop_id": "S011500006900000",
    "stop_name": "湖陵高校",
    "stop_lat": 42.981520186095295,
    "stop_lon": 144.409367430672,
    "zone_id": "Z001520",
    "location_type": 0,
    "parent_station": "S0115000069"
   }
  },
  {
   "type": "Feature",
   "geometry": {
    "type": "Point",
    "coordinates": [
     144.41447122942301,
     42.980305127430604
    ]
   },
   "properties": {
    "stop_id": "S0115000070",
    "stop_name": "緑ヶ岡五丁目",
    "stop_lat": 42.980305127430604,
    "stop_lon": 144.41447122942301,
    "zone_id": "0",
    "location_type": 1,
    "parent_station": NaN
   }
  },
  {
   "type": "Feature",
   "geometry": {
    "type": "Point",
    "coordinates": [
     144.41447122942301,
     42.980305127430604
    ]
   },
   "properties": {
    "stop_id": "S011500007000000",
    "stop_name": "緑ヶ岡五丁目",
    "stop_lat": 42.980305127430604,
    "stop_lon": 144.41447122942301,
    "zone_id": "Z004410",
    "location_type": 0,
    "parent_station": "S0115000070"
   }
  },
  {
   "type": "Feature",
   "geometry": {
    "type": "Point",
    "coordinates": [
     144.41780432391099,
     42.9794806210627
    ]
   },
   "properties": {
    "stop_id": "S0115000071",
    "stop_name": "みなみ病院",
    "stop_lat": 42.9794806210627,
    "stop_lon": 144.41780432391099,
    "zone_id": "0",
    "location_type": 1,
    "parent_station": NaN
   }
  },
  {
   "type": "Feature",
   "geometry": {
    "type": "Point",
    "coordinates": [
     144.41780432391099,
     42.9794806210627
    ]
   },
   "properties": {
    "stop_id": "S011500007100000",
    "stop_name": "みなみ病院",
    "stop_lat": 42.9794806210627,
    "stop_lon": 144.41780432391099,
    "zone_id": "Z004500",
    "location_type": 0,
    "parent_station": "S0115000071"
   }
  },
  {
   "type": "Feature",
   "geometry": {
    "type": "Point",
    "coordinates": [
     144.420824971126,
     42.978074574217
    ]
   },
   "properties": {
    "stop_id": "S0115000072",
    "stop_name": "春採七丁目",
    "stop_lat": 42.978074574217,
    "stop_lon": 144.420824971126,
    "zone_id": "0",
    "location_type": 1,
    "parent_station": NaN
   }
  },
  {
   "type": "Feature",
   "geometry": {
    "type": "Point",
    "coordinates": [
     144.420824971126,
     42.978074574217
    ]
   },
   "properties": {
    "stop_id": "S011500007200000",
    "stop_name": "春採七丁目",
    "stop_lat": 42.978074574217,
    "stop_lon": 144.420824971126,
    "zone_id": "Z003510",
    "location_type": 0,
    "parent_station": "S0115000072"
   }
  },
  {
   "type": "Feature",
   "geometry": {
    "type": "Point",
    "coordinates": [
     144.42346365925698,
     42.97767535745271
    ]
   },
   "properties": {
    "stop_id": "S0115000073",
    "stop_name": "永住",
    "stop_lat": 42.97767535745271,
    "stop_lon": 144.42346365925698,
    "zone_id": "0",
    "location_type": 1,
    "parent_station": NaN
   }
  },
  {
   "type": "Feature",
   "geometry": {
    "type": "Point",
    "coordinates": [
     144.42346365925698,
     42.97767535745271
    ]
   },
   "properties": {
    "stop_id": "S011500007300000",
    "stop_name": "永住",
    "stop_lat": 42.97767535745271,
    "stop_lon": 144.42346365925698,
    "zone_id": "Z003130",
    "location_type": 0,
    "parent_station": "S0115000073"
   }
  },
  {
   "type": "Feature",
   "geometry": {
    "type": "Point",
    "coordinates": [
     144.425998139818,
     42.978352412638394
    ]
   },
   "properties": {
    "stop_id": "S0115000074",
    "stop_name": "湖畔幼稚園",
    "stop_lat": 42.978352412638394,
    "stop_lon": 144.425998139818,
    "zone_id": "0",
    "location_type": 1,
    "parent_station": NaN
   }
  },
  {
   "type": "Feature",
   "geometry": {
    "type": "Point",
    "coordinates": [
     144.425998139818,
     42.978352412638394
    ]
   },
   "properties": {
    "stop_id": "S011500007400000",
    "stop_name": "湖畔幼稚園",
    "stop_lat": 42.978352412638394,
    "stop_lon": 144.425998139818,
    "zone_id": "Z001500",
    "location_type": 0,
    "parent_station": "S0115000074"
   }
  },
  {
   "type": "Feature",
   "geometry": {
    "type": "Point",
    "coordinates": [
     144.42787294215,
     42.9792638062362
    ]
   },
   "properties": {
    "stop_id": "S0115000075",
    "stop_name": "第６若草団地",
    "stop_lat": 42.9792638062362,
    "stop_lon": 144.42787294215,
    "zone_id": "0",
    "location_type": 1,
    "parent_station": NaN
   }
  },
  {
   "type": "Feature",
   "geometry": {
    "type": "Point",
    "coordinates": [
     144.42787294215,
     42.9792638062362
    ]
   },
   "properties": {
    "stop_id": "S011500007500000",
    "stop_name": "第６若草団地",
    "stop_lat": 42.9792638062362,
    "stop_lon": 144.42787294215,
    "zone_id": "Z002670",
    "location_type": 0,
    "parent_station": "S0115000075"
   }
  },
  {
   "type": "Feature",
   "geometry": {
    "type": "Point",
    "coordinates": [
     144.430025420065,
     42.9818937708649
    ]
   },
   "properties": {
    "stop_id": "S0115000076",
    "stop_name": "第１若草団地",
    "stop_lat": 42.9818937708649,
    "stop_lon": 144.430025420065,
    "zone_id": "0",
    "location_type": 1,
    "parent_station": NaN
   }
  },
  {
   "type": "Feature",
   "geometry": {
    "type": "Point",
    "coordinates": [
     144.430025420065,
     42.9818937708649
    ]
   },
   "properties": {
    "stop_id": "S011500007600000",
    "stop_name": "第１若草団地",
    "stop_lat": 42.9818937708649,
    "stop_lon": 144.430025420065,
    "zone_id": "Z002620",
    "location_type": 0,
    "parent_station": "S0115000076"
   }
  },
  {
   "type": "Feature",
   "geometry": {
    "type": "Point",
    "coordinates": [
     144.434330628065,
     42.981676855377906
    ]
   },
   "properties": {
    "stop_id": "S0115000077",
    "stop_name": "若草高台",
    "stop_lat": 42.981676855377906,
    "stop_lon": 144.434330628065,
    "zone_id": "0",
    "location_type": 1,
    "parent_station": NaN
   }
  },
  {
   "type": "Feature",
   "geometry": {
    "type": "Point",
    "coordinates": [
     144.434330628065,
     42.981676855377906
    ]
   },
   "properties": {
    "stop_id": "S011500007700000",
    "stop_name": "若草高台",
    "stop_lat": 42.981676855377906,
    "stop_lon": 144.434330628065,
    "zone_id": "Z005020",
    "location_type": 0,
    "parent_station": "S0115000077"
   }
  },
  {
   "type": "Feature",
   "geometry": {
    "type": "Point",
    "coordinates": [
     144.433184783183,
     42.9839942958215
    ]
   },
   "properties": {
    "stop_id": "S0115000078",
    "stop_name": "第７若草団地",
    "stop_lat": 42.9839942958215,
    "stop_lon": 144.433184783183,
    "zone_id": "0",
    "location_type": 1,
    "parent_station": NaN
   }
  },
  {
   "type": "Feature",
   "geometry": {
    "type": "Point",
    "coordinates": [
     144.433184783183,
     42.9839942958215
    ]
   },
   "properties": {
    "stop_id": "S011500007800000",
    "stop_name": "第７若草団地",
    "stop_lat": 42.9839942958215,
    "stop_lon": 144.433184783183,
    "zone_id": "Z002650",
    "location_type": 0,
    "parent_station": "S0115000078"
   }
  },
  {
   "type": "Feature",
   "geometry": {
    "type": "Point",
    "coordinates": [
     144.43065016275,
     42.9863551101454
    ]
   },
   "properties": {
    "stop_id": "S0115000079",
    "stop_name": "武佐四丁目",
    "stop_lat": 42.9863551101454,
    "stop_lon": 144.43065016275,
    "zone_id": "0",
    "location_type": 1,
    "parent_station": NaN
   }
  },
  {
   "type": "Feature",
   "geometry": {
    "type": "Point",
    "coordinates": [
     144.43065016275,
     42.9863551101454
    ]
   },
   "properties": {
    "stop_id": "S011500007900000",
    "stop_name": "武佐四丁目",
    "stop_lat": 42.9863551101454,
    "stop_lon": 144.43065016275,
    "zone_id": "Z004710",
    "location_type": 0,
    "parent_station": "S0115000079"
   }
  },
  {
   "type": "Feature",
   "geometry": {
    "type": "Point",
    "coordinates": [
     144.428914102296,
     42.988386112583704
    ]
   },
   "properties": {
    "stop_id": "S0115000080",
    "stop_name": "武佐中通",
    "stop_lat": 42.988386112583704,
    "stop_lon": 144.428914102296,
    "zone_id": "0",
    "location_type": 1,
    "parent_station": NaN
   }
  },
  {
   "type": "Feature",
   "geometry": {
    "type": "Point",
    "coordinates": [
     144.428914102296,
     42.988386112583704
    ]
   },
   "properties": {
    "stop_id": "S011500008000000",
    "stop_name": "武佐中通",
    "stop_lat": 42.988386112583704,
    "stop_lon": 144.428914102296,
    "zone_id": "Z004700",
    "location_type": 0,
    "parent_station": "S0115000080"
   }
  },
  {
   "type": "Feature",
   "geometry": {
    "type": "Point",
    "coordinates": [
     144.42735169008898,
     42.9892974461491
    ]
   },
   "properties": {
    "stop_id": "S0115000081",
    "stop_name": "２号公園",
    "stop_lat": 42.9892974461491,
    "stop_lon": 144.42735169008898,
    "zone_id": "0",
    "location_type": 1,
    "parent_station": NaN
   }
  },
  {
   "type": "Feature",
   "geometry": {
    "type": "Point",
    "coordinates": [
     144.42735169008898,
     42.9892974461491
    ]
   },
   "properties": {
    "stop_id": "S011500008100000",
    "stop_name": "２号公園",
    "stop_lat": 42.9892974461491,
    "stop_lon": 144.42735169008898,
    "zone_id": "Z003240",
    "location_type": 0,
    "parent_station": "S0115000081"
   }
  },
  {
   "type": "Feature",
   "geometry": {
    "type": "Point",
    "coordinates": [
     144.421484121835,
     42.98929734366939
    ]
   },
   "properties": {
    "stop_id": "S0115000082",
    "stop_name": "武佐団地入口",
    "stop_lat": 42.98929734366939,
    "stop_lon": 144.421484121835,
    "zone_id": "0",
    "location_type": 1,
    "parent_station": NaN
   }
  },
  {
   "type": "Feature",
   "geometry": {
    "type": "Point",
    "coordinates": [
     144.421484121835,
     42.98929734366939
    ]
   },
   "properties": {
    "stop_id": "S011500008200000",
    "stop_name": "武佐団地入口",
    "stop_lat": 42.98929734366939,
    "stop_lon": 144.421484121835,
    "zone_id": "Z004680",
    "location_type": 0,
    "parent_station": "S0115000082"
   }
  },
  {
   "type": "Feature",
   "geometry": {
    "type": "Point",
    "coordinates": [
     144.41981750045798,
     42.991319667693396
    ]
   },
   "properties": {
    "stop_id": "S0115000083",
    "stop_name": "貝塚通",
    "stop_lat": 42.991319667693396,
    "stop_lon": 144.41981750045798,
    "zone_id": "0",
    "location_type": 1,
    "parent_station": NaN
   }
  },
  {
   "type": "Feature",
   "geometry": {
    "type": "Point",
    "coordinates": [
     144.41981750045798,
     42.991319667693396
    ]
   },
   "properties": {
    "stop_id": "S011500008300000",
    "stop_name": "貝塚通",
    "stop_lat": 42.991319667693396,
    "stop_lon": 144.41981750045798,
    "zone_id": "Z000720",
    "location_type": 0,
    "parent_station": "S0115000083"
   }
  },
  {
   "type": "Feature",
   "geometry": {
    "type": "Point",
    "coordinates": [
     144.417803650925,
     42.99409711321729
    ]
   },
   "properties": {
    "stop_id": "S0115000084",
    "stop_name": "貝塚二丁目",
    "stop_lat": 42.99409711321729,
    "stop_lon": 144.417803650925,
    "zone_id": "0",
    "location_type": 1,
    "parent_station": NaN
   }
  },
  {
   "type": "Feature",
   "geometry": {
    "type": "Point",
    "coordinates": [
     144.417803650925,
     42.99409711321729
    ]
   },
   "properties": {
    "stop_id": "S011500008400000",
    "stop_name": "貝塚二丁目",
    "stop_lat": 42.99409711321729,
    "stop_lon": 144.417803650925,
    "zone_id": "Z000730",
    "location_type": 0,
    "parent_station": "S0115000084"
   }
  },
  {
   "type": "Feature",
   "geometry": {
    "type": "Point",
    "coordinates": [
     144.410512429526,
     42.99757751637079
    ]
   },
   "properties": {
    "stop_id": "S0115000085",
    "stop_name": "貝塚三丁目",
    "stop_lat": 42.99757751637079,
    "stop_lon": 144.410512429526,
    "zone_id": "0",
    "location_type": 1,
    "parent_station": NaN
   }
  },
  {
   "type": "Feature",
   "geometry": {
    "type": "Point",
    "coordinates": [
     144.410512429526,
     42.99757751637079
    ]
   },
   "properties": {
    "stop_id": "S011500008500000",
    "stop_name": "貝塚三丁目",
    "stop_lat": 42.99757751637079,
    "stop_lon": 144.410512429526,
    "zone_id": "Z000710",
    "location_type": 0,
    "parent_station": "S0115000085"
   }
  },
  {
   "type": "Feature",
   "geometry": {
    "type": "Point",
    "coordinates": [
     144.403012906082,
     43.0007541289351
    ]
   },
   "properties": {
    "stop_id": "S0115000086",
    "stop_name": "新開二丁目",
    "stop_lat": 43.0007541289351,
    "stop_lon": 144.403012906082,
    "zone_id": "0",
    "location_type": 1,
    "parent_station": NaN
   }
  },
  {
   "type": "Feature",
   "geometry": {
    "type": "Point",
    "coordinates": [
     144.403012906082,
     43.0007541289351
    ]
   },
   "properties": {
    "stop_id": "S011500008600000",
    "stop_name": "新開二丁目",
    "stop_lat": 43.0007541289351,
    "stop_lon": 144.403012906082,
    "zone_id": "Z002290",
    "location_type": 0,
    "parent_station": "S0115000086"
   }
  },
  {
   "type": "Feature",
   "geometry": {
    "type": "Point",
    "coordinates": [
     144.40349889490102,
     43.0025334609944
    ]
   },
   "properties": {
    "stop_id": "S0115000087",
    "stop_name": "光和六丁目",
    "stop_lat": 43.0025334609944,
    "stop_lon": 144.40349889490102,
    "zone_id": "0",
    "location_type": 1,
    "parent_station": NaN
   }
  },
  {
   "type": "Feature",
   "geometry": {
    "type": "Point",
    "coordinates": [
     144.40349889490102,
     43.0025334609944
    ]
   },
   "properties": {
    "stop_id": "S011500008700000",
    "stop_name": "光和六丁目",
    "stop_lat": 43.0025334609944,
    "stop_lon": 144.40349889490102,
    "zone_id": "Z001390",
    "location_type": 0,
    "parent_station": "S0115000087"
   }
  },
  {
   "type": "Feature",
   "geometry": {
    "type": "Point",
    "coordinates": [
     144.405720851457,
     43.0042954641188
    ]
   },
   "properties": {
    "stop_id": "S0115000088",
    "stop_name": "木場一丁目",
    "stop_lat": 43.0042954641188,
    "stop_lon": 144.405720851457,
    "zone_id": "0",
    "location_type": 1,
    "parent_station": NaN
   }
  },
  {
   "type": "Feature",
   "geometry": {
    "type": "Point",
    "coordinates": [
     144.405720851457,
     43.0042954641188
    ]
   },
   "properties": {
    "stop_id": "S011500008800000",
    "stop_name": "木場一丁目",
    "stop_lat": 43.0042954641188,
    "stop_lon": 144.405720851457,
    "zone_id": "Z001020",
    "location_type": 0,
    "parent_station": "S0115000088"
   }
  },
  {
   "type": "Feature",
   "geometry": {
    "type": "Point",
    "coordinates": [
     144.403394261718,
     43.0128535358805
    ]
   },
   "properties": {
    "stop_id": "S0115000089",
    "stop_name": "芦野三丁目",
    "stop_lat": 43.0128535358805,
    "stop_lon": 144.403394261718,
    "zone_id": "0",
    "location_type": 1,
    "parent_station": NaN
   }
  },
  {
   "type": "Feature",
   "geometry": {
    "type": "Point",
    "coordinates": [
     144.403394261718,
     43.0128535358805
    ]
   },
   "properties": {
    "stop_id": "S011500008900000",
    "stop_name": "芦野三丁目",
    "stop_lat": 43.0128535358805,
    "stop_lon": 144.403394261718,
    "zone_id": "Z000230",
    "location_type": 0,
    "parent_station": "S0115000089"
   }
  },
  {
   "type": "Feature",
   "geometry": {
    "type": "Point",
    "coordinates": [
     144.399818089096,
     43.0146067581108
    ]
   },
   "properties": {
    "stop_id": "S0115000090",
    "stop_name": "芦野一丁目",
    "stop_lat": 43.0146067581108,
    "stop_lon": 144.399818089096,
    "zone_id": "0",
    "location_type": 1,
    "parent_station": NaN
   }
  },
  {
   "type": "Feature",
   "geometry": {
    "type": "Point",
    "coordinates": [
     144.399818089096,
     43.0146067581108
    ]
   },
   "properties": {
    "stop_id": "S011500009000000",
    "stop_name": "芦野一丁目",
    "stop_lat": 43.0146067581108,
    "stop_lon": 144.399818089096,
    "zone_id": "Z000200",
    "location_type": 0,
    "parent_station": "S0115000090"
   }
  },
  {
   "type": "Feature",
   "geometry": {
    "type": "Point",
    "coordinates": [
     144.39450591197,
     43.0171758349757
    ]
   },
   "properties": {
    "stop_id": "S0115000091",
    "stop_name": "公立大南門［釧路公立大］",
    "stop_lat": 43.0171758349757,
    "stop_lon": 144.39450591197,
    "zone_id": "0",
    "location_type": 1,
    "parent_station": NaN
   }
  },
  {
   "type": "Feature",
   "geometry": {
    "type": "Point",
    "coordinates": [
     144.39450591197,
     43.0171758349757
    ]
   },
   "properties": {
    "stop_id": "S011500009100000",
    "stop_name": "公立大南門［釧路公立大］",
    "stop_lat": 43.0171758349757,
    "stop_lon": 144.39450591197,
    "zone_id": "Z001370",
    "location_type": 0,
    "parent_station": "S0115000091"
   }
  },
  {
   "type": "Feature",
   "geometry": {
    "type": "Point",
    "coordinates": [
     144.391346377009,
     43.0188075497023
    ]
   },
   "properties": {
    "stop_id": "S0115000092",
    "stop_name": "文苑一丁目",
    "stop_lat": 43.0188075497023,
    "stop_lon": 144.391346377009,
    "zone_id": "0",
    "location_type": 1,
    "parent_station": NaN
   }
  },
  {
   "type": "Feature",
   "geometry": {
    "type": "Point",
    "coordinates": [
     144.391346377009,
     43.0188075497023
    ]
   },
   "properties": {
    "stop_id": "S011500009200000",
    "stop_name": "文苑一丁目",
    "stop_lat": 43.0188075497023,
    "stop_lon": 144.391346377009,
    "zone_id": "Z003810",
    "location_type": 0,
    "parent_station": "S0115000092"
   }
  },
  {
   "type": "Feature",
   "geometry": {
    "type": "Point",
    "coordinates": [
     144.388707645718,
     43.020144166201
    ]
   },
   "properties": {
    "stop_id": "S0115000093",
    "stop_name": "日向小児科",
    "stop_lat": 43.020144166201,
    "stop_lon": 144.388707645718,
    "zone_id": "0",
    "location_type": 1,
    "parent_station": NaN
   }
  },
  {
   "type": "Feature",
   "geometry": {
    "type": "Point",
    "coordinates": [
     144.388707645718,
     43.020144166201
    ]
   },
   "properties": {
    "stop_id": "S011500009300000",
    "stop_name": "日向小児科",
    "stop_lat": 43.020144166201,
    "stop_lon": 144.388707645718,
    "zone_id": "Z003650",
    "location_type": 0,
    "parent_station": "S0115000093"
   }
  },
  {
   "type": "Feature",
   "geometry": {
    "type": "Point",
    "coordinates": [
     144.385825920217,
     43.0205867768563
    ]
   },
   "properties": {
    "stop_id": "S0115000094",
    "stop_name": "文苑二丁目",
    "stop_lat": 43.0205867768563,
    "stop_lon": 144.385825920217,
    "zone_id": "0",
    "location_type": 1,
    "parent_station": NaN
   }
  },
  {
   "type": "Feature",
   "geometry": {
    "type": "Point",
    "coordinates": [
     144.385825920217,
     43.0205867768563
    ]
   },
   "properties": {
    "stop_id": "S011500009400000",
    "stop_name": "文苑二丁目",
    "stop_lat": 43.0205867768563,
    "stop_lon": 144.385825920217,
    "zone_id": "Z003830",
    "location_type": 0,
    "parent_station": "S0115000094"
   }
  },
  {
   "type": "Feature",
   "geometry": {
    "type": "Point",
    "coordinates": [
     144.383673430313,
     43.0182172010427
    ]
   },
   "properties": {
    "stop_id": "S0115000095",
    "stop_name": "くしろバス本社",
    "stop_lat": 43.0182172010427,
    "stop_lon": 144.383673430313,
    "zone_id": "0",
    "location_type": 1,
    "parent_station": NaN
   }
  },
  {
   "type": "Feature",
   "geometry": {
    "type": "Point",
    "coordinates": [
     144.383673430313,
     43.0182172010427
    ]
   },
   "properties": {
    "stop_id": "S011500009500000",
    "stop_name": "くしろバス本社",
    "stop_lat": 43.0182172010427,
    "stop_lon": 144.383673430313,
    "zone_id": "Z001180",
    "location_type": 0,
    "parent_station": "S0115000095"
   }
  },
  {
   "type": "Feature",
   "geometry": {
    "type": "Point",
    "coordinates": [
     144.381763962192,
     43.0161427367978
    ]
   },
   "properties": {
    "stop_id": "S0115000096",
    "stop_name": "愛国西二丁目",
    "stop_lat": 43.0161427367978,
    "stop_lon": 144.381763962192,
    "zone_id": "0",
    "location_type": 1,
    "parent_station": NaN
   }
  },
  {
   "type": "Feature",
   "geometry": {
    "type": "Point",
    "coordinates": [
     144.381763962192,
     43.0161427367978
    ]
   },
   "properties": {
    "stop_id": "S011500009600000",
    "stop_name": "愛国西二丁目",
    "stop_lat": 43.0161427367978,
    "stop_lon": 144.381763962192,
    "zone_id": "Z000080",
    "location_type": 0,
    "parent_station": "S0115000096"
   }
  },
  {
   "type": "Feature",
   "geometry": {
    "type": "Point",
    "coordinates": [
     144.37957675414802,
     43.0137471214962
    ]
   },
   "properties": {
    "stop_id": "S0115000097",
    "stop_name": "愛国変電所",
    "stop_lat": 43.0137471214962,
    "stop_lon": 144.37957675414802,
    "zone_id": "0",
    "location_type": 1,
    "parent_station": NaN
   }
  },
  {
   "type": "Feature",
   "geometry": {
    "type": "Point",
    "coordinates": [
     144.37957675414802,
     43.0137471214962
    ]
   },
   "properties": {
    "stop_id": "S011500009700000",
    "stop_name": "愛国変電所",
    "stop_lat": 43.0137471214962,
    "stop_lon": 144.37957675414802,
    "zone_id": "Z000120",
    "location_type": 0,
    "parent_station": "S0115000097"
   }
  },
  {
   "type": "Feature",
   "geometry": {
    "type": "Point",
    "coordinates": [
     144.37822275948201,
     43.0124538333988
    ]
   },
   "properties": {
    "stop_id": "S0115000098",
    "stop_name": "東川町１５番地",
    "stop_lat": 43.0124538333988,
    "stop_lon": 144.37822275948201,
    "zone_id": "0",
    "location_type": 1,
    "parent_station": NaN
   }
  },
  {
   "type": "Feature",
   "geometry": {
    "type": "Point",
    "coordinates": [
     144.37822275948201,
     43.0124538333988
    ]
   },
   "properties": {
    "stop_id": "S011500009800000",
    "stop_name": "東川町１５番地",
    "stop_lat": 43.0124538333988,
    "stop_lon": 144.37822275948201,
    "zone_id": "Z003570",
    "location_type": 0,
    "parent_station": "S0115000098"
   }
  },
  {
   "type": "Feature",
   "geometry": {
    "type": "Point",
    "coordinates": [
     144.374855139078,
     43.009077399609794
    ]
   },
   "properties": {
    "stop_id": "S0115000099",
    "stop_name": "市民文化会館［釧路市］",
    "stop_lat": 43.009077399609794,
    "stop_lon": 144.374855139078,
    "zone_id": "0",
    "location_type": 1,
    "parent_station": NaN
   }
  },
  {
   "type": "Feature",
   "geometry": {
    "type": "Point",
    "coordinates": [
     144.374855139078,
     43.009077399609794
    ]
   },
   "properties": {
    "stop_id": "S011500009900000",
    "stop_name": "市民文化会館［釧路市］",
    "stop_lat": 43.009077399609794,
    "stop_lon": 144.374855139078,
    "zone_id": "Z001920",
    "location_type": 0,
    "parent_station": "S0115000099"
   }
  },
  {
   "type": "Feature",
   "geometry": {
    "type": "Point",
    "coordinates": [
     144.372772147397,
     43.0054145605607
    ]
   },
   "properties": {
    "stop_id": "S0115000100",
    "stop_name": "新橋大通六丁目",
    "stop_lat": 43.0054145605607,
    "stop_lon": 144.372772147397,
    "zone_id": "0",
    "location_type": 1,
    "parent_station": NaN
   }
  },
  {
   "type": "Feature",
   "geometry": {
    "type": "Point",
    "coordinates": [
     144.372772147397,
     43.0054145605607
    ]
   },
   "properties": {
    "stop_id": "S011500010000000",
    "stop_name": "新橋大通六丁目",
    "stop_lat": 43.0054145605607,
    "stop_lon": 144.372772147397,
    "zone_id": "Z002430",
    "location_type": 0,
    "parent_station": "S0115000100"
   }
  },
  {
   "type": "Feature",
   "geometry": {
    "type": "Point",
    "coordinates": [
     144.368397451564,
     43.0066990689769
    ]
   },
   "properties": {
    "stop_id": "S0115000101",
    "stop_name": "治水入口",
    "stop_lat": 43.0066990689769,
    "stop_lon": 144.368397451564,
    "zone_id": "0",
    "location_type": 1,
    "parent_station": NaN
   }
  },
  {
   "type": "Feature",
   "geometry": {
    "type": "Point",
    "coordinates": [
     144.368397451564,
     43.0066990689769
    ]
   },
   "properties": {
    "stop_id": "S011500010100000",
    "stop_name": "治水入口",
    "stop_lat": 43.0066990689769,
    "stop_lon": 144.368397451564,
    "zone_id": "Z001860",
    "location_type": 0,
    "parent_station": "S0115000101"
   }
  },
  {
   "type": "Feature",
   "geometry": {
    "type": "Point",
    "coordinates": [
     144.36249508044702,
     43.00851300796929
    ]
   },
   "properties": {
    "stop_id": "S0115000102",
    "stop_name": "鳥取大通二丁目",
    "stop_lat": 43.00851300796929,
    "stop_lon": 144.36249508044702,
    "zone_id": "0",
    "location_type": 1,
    "parent_station": NaN
   }
  },
  {
   "type": "Feature",
   "geometry": {
    "type": "Point",
    "coordinates": [
     144.36249508044702,
     43.00851300796929
    ]
   },
   "properties": {
    "stop_id": "S011500010200000",
    "stop_name": "鳥取大通二丁目",
    "stop_lat": 43.00851300796929,
    "stop_lon": 144.36249508044702,
    "zone_id": "Z002990",
    "location_type": 0,
    "parent_station": "S0115000102"
   }
  },
  {
   "type": "Feature",
   "geometry": {
    "type": "Point",
    "coordinates": [
     144.359266066445,
     43.0110213638274
    ]
   },
   "properties": {
    "stop_id": "S0115000103",
    "stop_name": "鳥取大通三丁目",
    "stop_lat": 43.0110213638274,
    "stop_lon": 144.359266066445,
    "zone_id": "0",
    "location_type": 1,
    "parent_station": NaN
   }
  },
  {
   "type": "Feature",
   "geometry": {
    "type": "Point",
    "coordinates": [
     144.359266066445,
     43.0110213638274
    ]
   },
   "properties": {
    "stop_id": "S011500010300000",
    "stop_name": "鳥取大通三丁目",
    "stop_lat": 43.0110213638274,
    "stop_lon": 144.359266066445,
    "zone_id": "Z002980",
    "location_type": 0,
    "parent_station": "S0115000103"
   }
  },
  {
   "type": "Feature",
   "geometry": {
    "type": "Point",
    "coordinates": [
     144.35464828848302,
     43.0133213843777
    ]
   },
   "properties": {
    "stop_id": "S0115000104",
    "stop_name": "鳥取神社前",
    "stop_lat": 43.0133213843777,
    "stop_lon": 144.35464828848302,
    "zone_id": "0",
    "location_type": 1,
    "parent_station": NaN
   }
  },
  {
   "type": "Feature",
   "geometry": {
    "type": "Point",
    "coordinates": [
     144.35464828848302,
     43.0133213843777
    ]
   },
   "properties": {
    "stop_id": "S011500010400000",
    "stop_name": "鳥取神社前",
    "stop_lat": 43.0133213843777,
    "stop_lon": 144.35464828848302,
    "zone_id": "Z003030",
    "location_type": 0,
    "parent_station": "S0115000104"
   }
  },
  {
   "type": "Feature",
   "geometry": {
    "type": "Point",
    "coordinates": [
     144.390514255436,
     42.9939924810695
    ]
   },
   "properties": {
    "stop_id": "S0115000105",
    "stop_name": "松浦町通",
    "stop_lat": 42.9939924810695,
    "stop_lon": 144.390514255436,
    "zone_id": "0",
    "location_type": 1,
    "parent_station": NaN
   }
  },
  {
   "type": "Feature",
   "geometry": {
    "type": "Point",
    "coordinates": [
     144.390514255436,
     42.9939924810695
    ]
   },
   "properties": {
    "stop_id": "S011500010500000",
    "stop_name": "松浦町通",
    "stop_lat": 42.9939924810695,
    "stop_lon": 144.390514255436,
    "zone_id": "Z004280",
    "location_type": 0,
    "parent_station": "S0115000105"
   }
  },
  {
   "type": "Feature",
   "geometry": {
    "type": "Point",
    "coordinates": [
     144.390444667694,
     42.997229980791204
    ]
   },
   "properties": {
    "stop_id": "S0115000106",
    "stop_name": "双葉町",
    "stop_lat": 42.997229980791204,
    "stop_lon": 144.390444667694,
    "zone_id": "0",
    "location_type": 1,
    "parent_station": NaN
   }
  },
  {
   "type": "Feature",
   "geometry": {
    "type": "Point",
    "coordinates": [
     144.390444667694,
     42.997229980791204
    ]
   },
   "properties": {
    "stop_id": "S011500010600000",
    "stop_name": "双葉町",
    "stop_lat": 42.997229980791204,
    "stop_lon": 144.390444667694,
    "zone_id": "Z003760",
    "location_type": 0,
    "parent_station": "S0115000106"
   }
  },
  {
   "type": "Feature",
   "geometry": {
    "type": "Point",
    "coordinates": [
     144.401137859572,
     43.00514598753821
    ]
   },
   "properties": {
    "stop_id": "S0115000107",
    "stop_name": "桂三丁目",
    "stop_lat": 43.00514598753821,
    "stop_lon": 144.401137859572,
    "zone_id": "0",
    "location_type": 1,
    "parent_station": NaN
   }
  },
  {
   "type": "Feature",
   "geometry": {
    "type": "Point",
    "coordinates": [
     144.401137859572,
     43.00514598753821
    ]
   },
   "properties": {
    "stop_id": "S011500010700000",
    "stop_name": "桂三丁目",
    "stop_lat": 43.00514598753821,
    "stop_lon": 144.401137859572,
    "zone_id": "Z000860",
    "location_type": 0,
    "parent_station": "S0115000107"
   }
  },
  {
   "type": "Feature",
   "geometry": {
    "type": "Point",
    "coordinates": [
     144.411275587588,
     43.012072507085506
    ]
   },
   "properties": {
    "stop_id": "S0115000108",
    "stop_name": "睦団地前",
    "stop_lat": 43.012072507085506,
    "stop_lon": 144.411275587588,
    "zone_id": "0",
    "location_type": 1,
    "parent_station": NaN
   }
  },
  {
   "type": "Feature",
   "geometry": {
    "type": "Point",
    "coordinates": [
     144.411275587588,
     43.012072507085506
    ]
   },
   "properties": {
    "stop_id": "S011500010800000",
    "stop_name": "睦団地前",
    "stop_lat": 43.012072507085506,
    "stop_lon": 144.411275587588,
    "zone_id": "Z004720",
    "location_type": 0,
    "parent_station": "S0115000108"
   }
  },
  {
   "type": "Feature",
   "geometry": {
    "type": "Point",
    "coordinates": [
     144.414053055164,
     43.0137998014035
    ]
   },
   "properties": {
    "stop_id": "S0115000109",
    "stop_name": "富原小学校",
    "stop_lat": 43.0137998014035,
    "stop_lon": 144.414053055164,
    "zone_id": "0",
    "location_type": 1,
    "parent_station": NaN
   }
  },
  {
   "type": "Feature",
   "geometry": {
    "type": "Point",
    "coordinates": [
     144.414053055164,
     43.0137998014035
    ]
   },
   "properties": {
    "stop_id": "S011500010900000",
    "stop_name": "富原小学校",
    "stop_lat": 43.0137998014035,
    "stop_lon": 144.414053055164,
    "zone_id": "Z003070",
    "location_type": 0,
    "parent_station": "S0115000109"
   }
  },
  {
   "type": "Feature",
   "geometry": {
    "type": "Point",
    "coordinates": [
     144.412872529308,
     43.01528399703239
    ]
   },
   "properties": {
    "stop_id": "S0115000110",
    "stop_name": "北都一丁目",
    "stop_lat": 43.01528399703239,
    "stop_lon": 144.412872529308,
    "zone_id": "0",
    "location_type": 1,
    "parent_station": NaN
   }
  },
  {
   "type": "Feature",
   "geometry": {
    "type": "Point",
    "coordinates": [
     144.412872529308,
     43.01528399703239
    ]
   },
   "properties": {
    "stop_id": "S011500011000000",
    "stop_name": "北都一丁目",
    "stop_lat": 43.01528399703239,
    "stop_lon": 144.412872529308,
    "zone_id": "Z004010",
    "location_type": 0,
    "parent_station": "S0115000110"
   }
  },
  {
   "type": "Feature",
   "geometry": {
    "type": "Point",
    "coordinates": [
     144.414087643422,
     43.0166467197217
    ]
   },
   "properties": {
    "stop_id": "S0115000111",
    "stop_name": "北都二丁目",
    "stop_lat": 43.0166467197217,
    "stop_lon": 144.414087643422,
    "zone_id": "0",
    "location_type": 1,
    "parent_station": NaN
   }
  },
  {
   "type": "Feature",
   "geometry": {
    "type": "Point",
    "coordinates": [
     144.414087643422,
     43.0166467197217
    ]
   },
   "properties": {
    "stop_id": "S011500011100000",
    "stop_name": "北都二丁目",
    "stop_lat": 43.0166467197217,
    "stop_lon": 144.414087643422,
    "zone_id": "Z004020",
    "location_type": 0,
    "parent_station": "S0115000111"
   }
  },
  {
   "type": "Feature",
   "geometry": {
    "type": "Point",
    "coordinates": [
     144.417698349152,
     43.0189382043591
    ]
   },
   "properties": {
    "stop_id": "S0115000112",
    "stop_name": "豊美一丁目",
    "stop_lat": 43.0189382043591,
    "stop_lon": 144.417698349152,
    "zone_id": "0",
    "location_type": 1,
    "parent_station": NaN
   }
  },
  {
   "type": "Feature",
   "geometry": {
    "type": "Point",
    "coordinates": [
     144.417698349152,
     43.0189382043591
    ]
   },
   "properties": {
    "stop_id": "S011500011200000",
    "stop_name": "豊美一丁目",
    "stop_lat": 43.0189382043591,
    "stop_lon": 144.417698349152,
    "zone_id": "Z003100",
    "location_type": 0,
    "parent_station": "S0115000112"
   }
  },
  {
   "type": "Feature",
   "geometry": {
    "type": "Point",
    "coordinates": [
     144.417281610384,
     43.02125565753679
    ]
   },
   "properties": {
    "stop_id": "S0115000113",
    "stop_name": "豊美二丁目",
    "stop_lat": 43.02125565753679,
    "stop_lon": 144.417281610384,
    "zone_id": "0",
    "location_type": 1,
    "parent_station": NaN
   }
  },
  {
   "type": "Feature",
   "geometry": {
    "type": "Point",
    "coordinates": [
     144.417281610384,
     43.02125565753679
    ]
   },
   "properties": {
    "stop_id": "S011500011300000",
    "stop_name": "豊美二丁目",
    "stop_lat": 43.02125565753679,
    "stop_lon": 144.417281610384,
    "zone_id": "Z003110",
    "location_type": 0,
    "parent_station": "S0115000113"
   }
  },
  {
   "type": "Feature",
   "geometry": {
    "type": "Point",
    "coordinates": [
     144.413705602813,
     43.01942419374579
    ]
   },
   "properties": {
    "stop_id": "S0115000114",
    "stop_name": "共栄橋通",
    "stop_lat": 43.01942419374579,
    "stop_lon": 144.413705602813,
    "zone_id": "0",
    "location_type": 1,
    "parent_station": NaN
   }
  },
  {
   "type": "Feature",
   "geometry": {
    "type": "Point",
    "coordinates": [
     144.413705602813,
     43.01942419374579
    ]
   },
   "properties": {
    "stop_id": "S011500011400000",
    "stop_name": "共栄橋通",
    "stop_lat": 43.01942419374579,
    "stop_lon": 144.413705602813,
    "zone_id": "Z001050",
    "location_type": 0,
    "parent_station": "S0115000114"
   }
  },
  {
   "type": "Feature",
   "geometry": {
    "type": "Point",
    "coordinates": [
     144.41172656373502,
     43.0202226848813
    ]
   },
   "properties": {
    "stop_id": "S0115000115",
    "stop_name": "美原東口",
    "stop_lat": 43.0202226848813,
    "stop_lon": 144.41172656373502,
    "zone_id": "0",
    "location_type": 1,
    "parent_station": NaN
   }
  },
  {
   "type": "Feature",
   "geometry": {
    "type": "Point",
    "coordinates": [
     144.41172656373502,
     43.0202226848813
    ]
   },
   "properties": {
    "stop_id": "S011500011500000",
    "stop_name": "美原東口",
    "stop_lat": 43.0202226848813,
    "stop_lon": 144.41172656373502,
    "zone_id": "Z005300",
    "location_type": 0,
    "parent_station": "S0115000115"
   }
  },
  {
   "type": "Feature",
   "geometry": {
    "type": "Point",
    "coordinates": [
     144.410303067648,
     43.0202920970367
    ]
   },
   "properties": {
    "stop_id": "S0115000116",
    "stop_name": "もみじ公園",
    "stop_lat": 43.0202920970367,
    "stop_lon": 144.410303067648,
    "zone_id": "0",
    "location_type": 1,
    "parent_station": NaN
   }
  },
  {
   "type": "Feature",
   "geometry": {
    "type": "Point",
    "coordinates": [
     144.410303067648,
     43.0202920970367
    ]
   },
   "properties": {
    "stop_id": "S011500011600000",
    "stop_name": "もみじ公園",
    "stop_lat": 43.0202920970367,
    "stop_lon": 144.410303067648,
    "zone_id": "Z004800",
    "location_type": 0,
    "parent_station": "S0115000116"
   }
  },
  {
   "type": "Feature",
   "geometry": {
    "type": "Point",
    "coordinates": [
     144.407351996585,
     43.018712353348704
    ]
   },
   "properties": {
    "stop_id": "S0115000117",
    "stop_name": "美原一丁目",
    "stop_lat": 43.018712353348704,
    "stop_lon": 144.407351996585,
    "zone_id": "0",
    "location_type": 1,
    "parent_station": NaN
   }
  },
  {
   "type": "Feature",
   "geometry": {
    "type": "Point",
    "coordinates": [
     144.407351996585,
     43.018712353348704
    ]
   },
   "properties": {
    "stop_id": "S011500011700000",
    "stop_name": "美原一丁目",
    "stop_lat": 43.018712353348704,
    "stop_lon": 144.407351996585,
    "zone_id": "Z004520",
    "location_type": 0,
    "parent_station": "S0115000117"
   }
  },
  {
   "type": "Feature",
   "geometry": {
    "type": "Point",
    "coordinates": [
     144.403498011706,
     43.0217154370404
    ]
   },
   "properties": {
    "stop_id": "S0115000118",
    "stop_name": "ショッピングセンター",
    "stop_lat": 43.0217154370404,
    "stop_lon": 144.403498011706,
    "zone_id": "0",
    "location_type": 1,
    "parent_station": NaN
   }
  },
  {
   "type": "Feature",
   "geometry": {
    "type": "Point",
    "coordinates": [
     144.403498011706,
     43.0217154370404
    ]
   },
   "properties": {
    "stop_id": "S011500011800000",
    "stop_name": "ショッピングセンター",
    "stop_lat": 43.0217154370404,
    "stop_lon": 144.403498011706,
    "zone_id": "Z002110",
    "location_type": 0,
    "parent_station": "S0115000118"
   }
  },
  {
   "type": "Feature",
   "geometry": {
    "type": "Point",
    "coordinates": [
     144.400373193687,
     43.02339923013639
    ]
   },
   "properties": {
    "stop_id": "S0115000119",
    "stop_name": "団地中央通",
    "stop_lat": 43.02339923013639,
    "stop_lon": 144.400373193687,
    "zone_id": "0",
    "location_type": 1,
    "parent_station": NaN
   }
  },
  {
   "type": "Feature",
   "geometry": {
    "type": "Point",
    "coordinates": [
     144.400373193687,
     43.02339923013639
    ]
   },
   "properties": {
    "stop_id": "S011500011900000",
    "stop_name": "団地中央通",
    "stop_lat": 43.02339923013639,
    "stop_lon": 144.400373193687,
    "zone_id": "Z002730",
    "location_type": 0,
    "parent_station": "S0115000119"
   }
  },
  {
   "type": "Feature",
   "geometry": {
    "type": "Point",
    "coordinates": [
     144.398914921512,
     43.0247011487436
    ]
   },
   "properties": {
    "stop_id": "S0115000120",
    "stop_name": "コアかがやき",
    "stop_lat": 43.0247011487436,
    "stop_lon": 144.398914921512,
    "zone_id": "0",
    "location_type": 1,
    "parent_station": NaN
   }
  },
  {
   "type": "Feature",
   "geometry": {
    "type": "Point",
    "coordinates": [
     144.398914921512,
     43.0247011487436
    ]
   },
   "properties": {
    "stop_id": "S011500012000000",
    "stop_name": "コアかがやき",
    "stop_lat": 43.0247011487436,
    "stop_lon": 144.398914921512,
    "zone_id": "Z001220",
    "location_type": 0,
    "parent_station": "S0115000120"
   }
  },
  {
   "type": "Feature",
   "geometry": {
    "type": "Point",
    "coordinates": [
     144.401796547104,
     43.02642844488071
    ]
   },
   "properties": {
    "stop_id": "S0115000121",
    "stop_name": "美原三丁目",
    "stop_lat": 43.02642844488071,
    "stop_lon": 144.401796547104,
    "zone_id": "0",
    "location_type": 1,
    "parent_station": NaN
   }
  },
  {
   "type": "Feature",
   "geometry": {
    "type": "Point",
    "coordinates": [
     144.401796547104,
     43.02642844488071
    ]
   },
   "properties": {
    "stop_id": "S011500012100000",
    "stop_name": "美原三丁目",
    "stop_lat": 43.02642844488071,
    "stop_lon": 144.401796547104,
    "zone_id": "Z004550",
    "location_type": 0,
    "parent_station": "S0115000121"
   }
  },
  {
   "type": "Feature",
   "geometry": {
    "type": "Point",
    "coordinates": [
     144.399886937512,
     43.0274265686539
    ]
   },
   "properties": {
    "stop_id": "S0115000122",
    "stop_name": "孝仁会記念病院",
    "stop_lat": 43.0274265686539,
    "stop_lon": 144.399886937512,
    "zone_id": "0",
    "location_type": 1,
    "parent_station": NaN
   }
  },
  {
   "type": "Feature",
   "geometry": {
    "type": "Point",
    "coordinates": [
     144.399886937512,
     43.0274265686539
    ]
   },
   "properties": {
    "stop_id": "S011500012200000",
    "stop_name": "孝仁会記念病院",
    "stop_lat": 43.0274265686539,
    "stop_lon": 144.399886937512,
    "zone_id": "Z001300",
    "location_type": 0,
    "parent_station": "S0115000122"
   }
  },
  {
   "type": "Feature",
   "geometry": {
    "type": "Point",
    "coordinates": [
     144.384855495565,
     42.9832990815545
    ]
   },
   "properties": {
    "stop_id": "S0115000123",
    "stop_name": "十字街",
    "stop_lat": 42.9832990815545,
    "stop_lon": 144.384855495565,
    "zone_id": "0",
    "location_type": 1,
    "parent_station": NaN
   }
  },
  {
   "type": "Feature",
   "geometry": {
    "type": "Point",
    "coordinates": [
     144.384855495565,
     42.9832990815545
    ]
   },
   "properties": {
    "stop_id": "S011500012300000",
    "stop_name": "十字街",
    "stop_lat": 42.9832990815545,
    "stop_lon": 144.384855495565,
    "zone_id": "Z001960",
    "location_type": 0,
    "parent_station": "S0115000123"
   }
  },
  {
   "type": "Feature",
   "geometry": {
    "type": "Point",
    "coordinates": [
     144.384196124658,
     42.9768587866729
    ]
   },
   "properties": {
    "stop_id": "S0115000124",
    "stop_name": "浦見二丁目",
    "stop_lat": 42.9768587866729,
    "stop_lon": 144.384196124658,
    "zone_id": "0",
    "location_type": 1,
    "parent_station": NaN
   }
  },
  {
   "type": "Feature",
   "geometry": {
    "type": "Point",
    "coordinates": [
     144.384196124658,
     42.9768587866729
    ]
   },
   "properties": {
    "stop_id": "S011500012400000",
    "stop_name": "浦見二丁目",
    "stop_lat": 42.9768587866729,
    "stop_lon": 144.384196124658,
    "zone_id": "Z000410",
    "location_type": 0,
    "parent_station": "S0115000124"
   }
  },
  {
   "type": "Feature",
   "geometry": {
    "type": "Point",
    "coordinates": [
     144.382008880247,
     42.9752530174439
    ]
   },
   "properties": {
    "stop_id": "S0115000125",
    "stop_name": "浦見三丁目",
    "stop_lat": 42.9752530174439,
    "stop_lon": 144.382008880247,
    "zone_id": "0",
    "location_type": 1,
    "parent_station": NaN
   }
  },
  {
   "type": "Feature",
   "geometry": {
    "type": "Point",
    "coordinates": [
     144.382008880247,
     42.9752530174439
    ]
   },
   "properties": {
    "stop_id": "S011500012500000",
    "stop_name": "浦見三丁目",
    "stop_lat": 42.9752530174439,
    "stop_lon": 144.382008880247,
    "zone_id": "Z000400",
    "location_type": 0,
    "parent_station": "S0115000125"
   }
  },
  {
   "type": "Feature",
   "geometry": {
    "type": "Point",
    "coordinates": [
     144.382564476389,
     42.9733695480502
    ]
   },
   "properties": {
    "stop_id": "S0115000126",
    "stop_name": "浦見四丁目",
    "stop_lat": 42.9733695480502,
    "stop_lon": 144.382564476389,
    "zone_id": "0",
    "location_type": 1,
    "parent_station": NaN
   }
  },
  {
   "type": "Feature",
   "geometry": {
    "type": "Point",
    "coordinates": [
     144.382564476389,
     42.9733695480502
    ]
   },
   "properties": {
    "stop_id": "S011500012600000",
    "stop_name": "浦見四丁目",
    "stop_lat": 42.9733695480502,
    "stop_lon": 144.382564476389,
    "zone_id": "Z000420",
    "location_type": 0,
    "parent_station": "S0115000126"
   }
  },
  {
   "type": "Feature",
   "geometry": {
    "type": "Point",
    "coordinates": [
     144.381106260962,
     42.9734389595992
    ]
   },
   "properties": {
    "stop_id": "S0115000127",
    "stop_name": "しゃも寅通",
    "stop_lat": 42.9734389595992,
    "stop_lon": 144.381106260962,
    "zone_id": "0",
    "location_type": 1,
    "parent_station": NaN
   }
  },
  {
   "type": "Feature",
   "geometry": {
    "type": "Point",
    "coordinates": [
     144.381106260962,
     42.9734389595992
    ]
   },
   "properties": {
    "stop_id": "S011500012700000",
    "stop_name": "しゃも寅通",
    "stop_lat": 42.9734389595992,
    "stop_lon": 144.381106260962,
    "zone_id": "Z001950",
    "location_type": 0,
    "parent_station": "S0115000127"
   }
  },
  {
   "type": "Feature",
   "geometry": {
    "type": "Point",
    "coordinates": [
     144.376106692162,
     42.9730916871924
    ]
   },
   "properties": {
    "stop_id": "S0115000128",
    "stop_name": "米町一丁目",
    "stop_lat": 42.9730916871924,
    "stop_lon": 144.376106692162,
    "zone_id": "0",
    "location_type": 1,
    "parent_station": NaN
   }
  },
  {
   "type": "Feature",
   "geometry": {
    "type": "Point",
    "coordinates": [
     144.376106692162,
     42.9730916871924
    ]
   },
   "properties": {
    "stop_id": "S011500012800000",
    "stop_name": "米町一丁目",
    "stop_lat": 42.9730916871924,
    "stop_lon": 144.376106692162,
    "zone_id": "Z004920",
    "location_type": 0,
    "parent_station": "S0115000128"
   }
  },
  {
   "type": "Feature",
   "geometry": {
    "type": "Point",
    "coordinates": [
     144.37659284243298,
     42.9713644498751
    ]
   },
   "properties": {
    "stop_id": "S0115000129",
    "stop_name": "聞名寺前",
    "stop_lat": 42.9713644498751,
    "stop_lon": 144.37659284243298,
    "zone_id": "0",
    "location_type": 1,
    "parent_station": NaN
   }
  },
  {
   "type": "Feature",
   "geometry": {
    "type": "Point",
    "coordinates": [
     144.37659284243298,
     42.9713644498751
    ]
   },
   "properties": {
    "stop_id": "S011500012900000",
    "stop_name": "聞名寺前",
    "stop_lat": 42.9713644498751,
    "stop_lon": 144.37659284243298,
    "zone_id": "Z004840",
    "location_type": 0,
    "parent_station": "S0115000129"
   }
  },
  {
   "type": "Feature",
   "geometry": {
    "type": "Point",
    "coordinates": [
     144.378051097823,
     42.970427075608995
    ]
   },
   "properties": {
    "stop_id": "S0115000130",
    "stop_name": "やよい公園前",
    "stop_lat": 42.970427075608995,
    "stop_lon": 144.378051097823,
    "zone_id": "0",
    "location_type": 1,
    "parent_station": NaN
   }
  },
  {
   "type": "Feature",
   "geometry": {
    "type": "Point",
    "coordinates": [
     144.378051097823,
     42.970427075608995
    ]
   },
   "properties": {
    "stop_id": "S011500013000000",
    "stop_name": "やよい公園前",
    "stop_lat": 42.970427075608995,
    "stop_lon": 144.378051097823,
    "zone_id": "Z004890",
    "location_type": 0,
    "parent_station": "S0115000130"
   }
  },